{
  "generated_at": "2026-04-09T12:12:40.720296+00:00",
  "max_distance_km": 5.0,
  "routes": {
    "EV3": {
      "route_id": "EV3",
      "name": "La Scandibérique",
      "total_km": 1800.885,
      "stations": [
        {
          "nom": "Jeumont",
          "libellecourt": "JTJ",
          "codes_uic": [
            "87295014"
          ],
          "lat": 50.29606,
          "lon": 4.08645,
          "distance_to_route_km": 0.379,
          "cumulative_km": 21.8
        },
        {
          "nom": "Recquignies",
          "libellecourt": "RCQ",
          "codes_uic": [
            "87295022"
          ],
          "lat": 50.2840466,
          "lon": 4.0445029,
          "distance_to_route_km": 0.371,
          "cumulative_km": 25.466
        },
        {
          "nom": "Les Bons Pères",
          "libellecourt": "BJP",
          "codes_uic": [
            "87297515"
          ],
          "lat": 50.2798638,
          "lon": 4.010967,
          "distance_to_route_km": 0.508,
          "cumulative_km": 28.557
        },
        {
          "nom": "Hautmont",
          "libellecourt": "HAT",
          "codes_uic": [
            "87295568"
          ],
          "lat": 50.25398,
          "lon": 3.91522,
          "distance_to_route_km": 4.355,
          "cumulative_km": 32.975
        },
        {
          "nom": "Louvroil",
          "libellecourt": "LWF",
          "codes_uic": [
            "87295535"
          ],
          "lat": 50.2683469,
          "lon": 3.9535768,
          "distance_to_route_km": 1.195,
          "cumulative_km": 32.975
        },
        {
          "nom": "Maubeuge",
          "libellecourt": "MBG",
          "codes_uic": [
            "87295006"
          ],
          "lat": 50.27298,
          "lon": 3.96677,
          "distance_to_route_km": 0.126,
          "cumulative_km": 32.975
        },
        {
          "nom": "Sous le Bois",
          "libellecourt": "SBS",
          "codes_uic": [
            "87295543"
          ],
          "lat": 50.2655833,
          "lon": 3.93961,
          "distance_to_route_km": 2.221,
          "cumulative_km": 32.975
        },
        {
          "nom": "Sains-du-Nord",
          "libellecourt": "SAW",
          "codes_uic": [
            "87295709"
          ],
          "lat": 50.0889485,
          "lon": 4.0016955,
          "distance_to_route_km": 4.235,
          "cumulative_km": 62.242
        },
        {
          "nom": "Fourmies",
          "libellecourt": "FMI",
          "codes_uic": [
            "87295048"
          ],
          "lat": 50.01541,
          "lon": 4.05357,
          "distance_to_route_km": 0.029,
          "cumulative_km": 77.216
        },
        {
          "nom": "Anor",
          "libellecourt": "ANO",
          "codes_uic": [
            "87295055"
          ],
          "lat": 49.984892,
          "lon": 4.0929803,
          "distance_to_route_km": 0.384,
          "cumulative_km": 86.89
        },
        {
          "nom": "Hirson Écoles",
          "libellecourt": "HSO",
          "codes_uic": [
            "87324335"
          ],
          "lat": 49.9288321,
          "lon": 4.0861491,
          "distance_to_route_km": 0.405,
          "cumulative_km": 94.749
        },
        {
          "nom": "Hirson",
          "libellecourt": "HIQ",
          "codes_uic": [
            "87295063"
          ],
          "lat": 49.91455,
          "lon": 4.08432,
          "distance_to_route_km": 0.029,
          "cumulative_km": 97.414
        },
        {
          "nom": "La Fère",
          "libellecourt": "FER",
          "codes_uic": [
            "87296632"
          ],
          "lat": 49.65802,
          "lon": 3.36981,
          "distance_to_route_km": 1.415,
          "cumulative_km": 182.042
        },
        {
          "nom": "Tergnier",
          "libellecourt": "TGR",
          "codes_uic": [
            "87296442"
          ],
          "lat": 49.6591862,
          "lon": 3.2972491,
          "distance_to_route_km": 0.411,
          "cumulative_km": 187.118
        },
        {
          "nom": "Mennessis",
          "libellecourt": "MKI",
          "codes_uic": [
            "87296434"
          ],
          "lat": 49.6915989,
          "lon": 3.2711145,
          "distance_to_route_km": 4.43,
          "cumulative_km": 187.126
        },
        {
          "nom": "Viry-Noureuil",
          "libellecourt": "VWN",
          "codes_uic": [
            "87297051"
          ],
          "lat": 49.6274493,
          "lon": 3.2503611,
          "distance_to_route_km": 0.521,
          "cumulative_km": 192.731
        },
        {
          "nom": "Chauny",
          "libellecourt": "CNY",
          "codes_uic": [
            "87296616"
          ],
          "lat": 49.61119,
          "lon": 3.22354,
          "distance_to_route_km": 0.407,
          "cumulative_km": 195.533
        },
        {
          "nom": "Appilly",
          "libellecourt": "APP",
          "codes_uic": [
            "87296459"
          ],
          "lat": 49.5808826,
          "lon": 3.1221903,
          "distance_to_route_km": 0.259,
          "cumulative_km": 203.951
        },
        {
          "nom": "Noyon",
          "libellecourt": "NOY",
          "codes_uic": [
            "87276782"
          ],
          "lat": 49.57736,
          "lon": 3.00641,
          "distance_to_route_km": 1.536,
          "cumulative_km": 212.411
        },
        {
          "nom": "Ourscamp",
          "libellecourt": "OUA",
          "codes_uic": [
            "87276774"
          ],
          "lat": 49.5341405,
          "lon": 2.9540017,
          "distance_to_route_km": 0.052,
          "cumulative_km": 218.871
        },
        {
          "nom": "Ribécourt-Dreslincourt",
          "libellecourt": "RIB",
          "codes_uic": [
            "87276766"
          ],
          "lat": 49.50633,
          "lon": 2.92714,
          "distance_to_route_km": 1.692,
          "cumulative_km": 221.806
        },
        {
          "nom": "Thourotte",
          "libellecourt": "LTC",
          "codes_uic": [
            "87276741"
          ],
          "lat": 49.4760722,
          "lon": 2.8830021,
          "distance_to_route_km": 2.151,
          "cumulative_km": 230.887
        },
        {
          "nom": "Longueil-Annel",
          "libellecourt": "LPK",
          "codes_uic": [
            "87272195"
          ],
          "lat": 49.4672441,
          "lon": 2.8634086,
          "distance_to_route_km": 3.243,
          "cumulative_km": 230.909
        },
        {
          "nom": "Compiègne",
          "libellecourt": "CPE",
          "codes_uic": [
            "87276691"
          ],
          "lat": 49.422005,
          "lon": 2.823679,
          "distance_to_route_km": 0.214,
          "cumulative_km": 240.458
        },
        {
          "nom": "Jaux",
          "libellecourt": "JAX",
          "codes_uic": [
            "87272013"
          ],
          "lat": 49.3868029,
          "lon": 2.777316,
          "distance_to_route_km": 0.198,
          "cumulative_km": 245.922
        },
        {
          "nom": "Le Meux - La Croix-Saint-Ouen",
          "libellecourt": "LXS",
          "codes_uic": [
            "87276733"
          ],
          "lat": 49.3594029,
          "lon": 2.7532645,
          "distance_to_route_km": 0.897,
          "cumulative_km": 249.03
        },
        {
          "nom": "Longueil-Sainte-Marie",
          "libellecourt": "LUE",
          "codes_uic": [
            "87276303"
          ],
          "lat": 49.3425377,
          "lon": 2.7175537,
          "distance_to_route_km": 2.0,
          "cumulative_km": 254.134
        },
        {
          "nom": "Chevrières",
          "libellecourt": "CGB",
          "codes_uic": [
            "87276311"
          ],
          "lat": 49.3373064,
          "lon": 2.6828025,
          "distance_to_route_km": 2.508,
          "cumulative_km": 262.188
        },
        {
          "nom": "Pont-Sainte-Maxence",
          "libellecourt": "PXE",
          "codes_uic": [
            "87276329"
          ],
          "lat": 49.30974,
          "lon": 2.60289,
          "distance_to_route_km": 0.986,
          "cumulative_km": 269.422
        },
        {
          "nom": "Le Plessis-Belleville",
          "libellecourt": "PLB",
          "codes_uic": [
            "87271551"
          ],
          "lat": 49.0959033,
          "lon": 2.7448073,
          "distance_to_route_km": 4.595,
          "cumulative_km": 300.943
        },
        {
          "nom": "Dammartin - Juilly - Saint-Mard",
          "libellecourt": "DAM",
          "codes_uic": [
            "87271536"
          ],
          "lat": 49.03219,
          "lon": 2.69887,
          "distance_to_route_km": 2.877,
          "cumulative_km": 317.037
        },
        {
          "nom": "Thieux - Nantouillet",
          "libellecourt": "TNT",
          "codes_uic": [
            "87272054"
          ],
          "lat": 49.0084346,
          "lon": 2.6805271,
          "distance_to_route_km": 0.79,
          "cumulative_km": 318.729
        },
        {
          "nom": "Compans",
          "libellecourt": "COJ",
          "codes_uic": [
            "87272047"
          ],
          "lat": 48.9915767,
          "lon": 2.6652718,
          "distance_to_route_km": 0.078,
          "cumulative_km": 320.623
        },
        {
          "nom": "Mitry - Claye",
          "libellecourt": "MYV",
          "codes_uic": [
            "87271528"
          ],
          "lat": 48.97569,
          "lon": 2.64247,
          "distance_to_route_km": 1.891,
          "cumulative_km": 322.581
        },
        {
          "nom": "Villeparisis - Mitry-le-Neuf",
          "libellecourt": "VII",
          "codes_uic": [
            "87271510"
          ],
          "lat": 48.95325,
          "lon": 2.60243,
          "distance_to_route_km": 0.091,
          "cumulative_km": 330.399
        },
        {
          "nom": "Vert Galant",
          "libellecourt": "VGL",
          "codes_uic": [
            "87271437"
          ],
          "lat": 48.94467,
          "lon": 2.5667,
          "distance_to_route_km": 0.158,
          "cumulative_km": 333.185
        },
        {
          "nom": "Parc des Expositions",
          "libellecourt": "PEX",
          "codes_uic": [
            "87271486"
          ],
          "lat": 48.97334,
          "lon": 2.51382,
          "distance_to_route_km": 4.524,
          "cumulative_km": 335.576
        },
        {
          "nom": "Sevran - Livry",
          "libellecourt": "SEV",
          "codes_uic": [
            "87271429"
          ],
          "lat": 48.93601,
          "lon": 2.53484,
          "distance_to_route_km": 0.094,
          "cumulative_km": 335.82
        },
        {
          "nom": "Sevran Beaudottes",
          "libellecourt": "BDE",
          "codes_uic": [
            "87271445"
          ],
          "lat": 48.94743,
          "lon": 2.52474,
          "distance_to_route_km": 1.562,
          "cumulative_km": 336.323
        },
        {
          "nom": "Villepinte",
          "libellecourt": "VPN",
          "codes_uic": [
            "87271452"
          ],
          "lat": 48.96292,
          "lon": 2.51205,
          "distance_to_route_km": 3.475,
          "cumulative_km": 336.323
        },
        {
          "nom": "Rougemont Chanteloup",
          "libellecourt": "ROU",
          "codes_uic": [
            "87431791"
          ],
          "lat": 48.930895,
          "lon": 2.51502,
          "distance_to_route_km": 0.313,
          "cumulative_km": 337.266
        },
        {
          "nom": "Freinville Sevran",
          "libellecourt": "FSV",
          "codes_uic": [
            "87113894"
          ],
          "lat": 48.926637,
          "lon": 2.519019,
          "distance_to_route_km": 0.221,
          "cumulative_km": 337.357
        },
        {
          "nom": "Aulnay-sous-Bois",
          "libellecourt": "ABM",
          "codes_uic": [
            "87271411"
          ],
          "lat": 48.93179,
          "lon": 2.49431,
          "distance_to_route_km": 1.65,
          "cumulative_km": 337.619
        },
        {
          "nom": "L'Abbaye",
          "libellecourt": "ABJ",
          "codes_uic": [
            "87113886"
          ],
          "lat": 48.922211,
          "lon": 2.516874,
          "distance_to_route_km": 0.395,
          "cumulative_km": 337.779
        },
        {
          "nom": "Lycée Henri Sellier",
          "libellecourt": "LHS",
          "codes_uic": [
            "87988717"
          ],
          "lat": 48.91646,
          "lon": 2.51504,
          "distance_to_route_km": 0.643,
          "cumulative_km": 338.674
        },
        {
          "nom": "Le Blanc-Mesnil",
          "libellecourt": "BAM",
          "codes_uic": [
            "87271478"
          ],
          "lat": 48.93248,
          "lon": 2.47747,
          "distance_to_route_km": 2.642,
          "cumulative_km": 338.683
        },
        {
          "nom": "Gargan",
          "libellecourt": "GAF",
          "codes_uic": [
            "87113860"
          ],
          "lat": 48.908159,
          "lon": 2.517109,
          "distance_to_route_km": 1.298,
          "cumulative_km": 339.26
        },
        {
          "nom": "Les Pavillons-sous-Bois",
          "libellecourt": "PVB",
          "codes_uic": [
            "87113852"
          ],
          "lat": 48.902418,
          "lon": 2.511781,
          "distance_to_route_km": 1.39,
          "cumulative_km": 339.667
        },
        {
          "nom": "Gagny",
          "libellecourt": "GNQ",
          "codes_uic": [
            "87113514"
          ],
          "lat": 48.883125,
          "lon": 2.527106,
          "distance_to_route_km": 3.767,
          "cumulative_km": 339.749
        },
        {
          "nom": "Allée de la Tour Rendez-Vous",
          "libellecourt": "AET",
          "codes_uic": [
            "87113878"
          ],
          "lat": 48.897109,
          "lon": 2.506475,
          "distance_to_route_km": 1.654,
          "cumulative_km": 339.903
        },
        {
          "nom": "Le Raincy - Villemomble - Montfermeil",
          "libellecourt": "RVM",
          "codes_uic": [
            "87113472"
          ],
          "lat": 48.889325,
          "lon": 2.512062,
          "distance_to_route_km": 2.61,
          "cumulative_km": 339.903
        },
        {
          "nom": "Les Coquetiers",
          "libellecourt": "LQT",
          "codes_uic": [
            "87113845"
          ],
          "lat": 48.89244,
          "lon": 2.499415,
          "distance_to_route_km": 1.958,
          "cumulative_km": 340.323
        },
        {
          "nom": "Remise à Jorelle",
          "libellecourt": "RJL",
          "codes_uic": [
            "87988709"
          ],
          "lat": 48.89317,
          "lon": 2.487751,
          "distance_to_route_km": 1.661,
          "cumulative_km": 340.786
        },
        {
          "nom": "Bondy",
          "libellecourt": "BDY",
          "codes_uic": [
            "87113407"
          ],
          "lat": 48.894208,
          "lon": 2.4786,
          "distance_to_route_km": 1.331,
          "cumulative_km": 341.6
        },
        {
          "nom": "Rosny Bois Perrier",
          "libellecourt": "RBI",
          "codes_uic": [
            "87113696"
          ],
          "lat": 48.882568,
          "lon": 2.480987,
          "distance_to_route_km": 2.632,
          "cumulative_km": 341.6
        },
        {
          "nom": "Rosny-sous-Bois",
          "libellecourt": "RSB",
          "codes_uic": [
            "87113704"
          ],
          "lat": 48.87099,
          "lon": 2.48559,
          "distance_to_route_km": 3.961,
          "cumulative_km": 341.6
        },
        {
          "nom": "Drancy",
          "libellecourt": "DRN",
          "codes_uic": [
            "87271403"
          ],
          "lat": 48.93298,
          "lon": 2.45497,
          "distance_to_route_km": 3.249,
          "cumulative_km": 342.14
        },
        {
          "nom": "Noisy-le-Sec",
          "libellecourt": "NSY",
          "codes_uic": [
            "87113217"
          ],
          "lat": 48.896288,
          "lon": 2.459306,
          "distance_to_route_km": 0.744,
          "cumulative_km": 342.843
        },
        {
          "nom": "Le Bourget",
          "libellecourt": "LBT",
          "codes_uic": [
            "87271395"
          ],
          "lat": 48.93096,
          "lon": 2.42571,
          "distance_to_route_km": 3.689,
          "cumulative_km": 343.98
        },
        {
          "nom": "Le Bourget T11",
          "libellecourt": "BOT",
          "codes_uic": [
            "87697359"
          ],
          "lat": 48.93086,
          "lon": 2.42571,
          "distance_to_route_km": 3.679,
          "cumulative_km": 343.98
        },
        {
          "nom": "Pantin",
          "libellecourt": "PAN",
          "codes_uic": [
            "87113209"
          ],
          "lat": 48.898096,
          "lon": 2.400685,
          "distance_to_route_km": 0.246,
          "cumulative_km": 347.308
        },
        {
          "nom": "La Courneuve - Aubervilliers",
          "libellecourt": "ALC",
          "codes_uic": [
            "87271304"
          ],
          "lat": 48.9242,
          "lon": 2.38443,
          "distance_to_route_km": 3.267,
          "cumulative_km": 347.732
        },
        {
          "nom": "La Plaine Stade de France - Saint-Denis - Aubervilliers",
          "libellecourt": "LPN",
          "codes_uic": [
            "87164798"
          ],
          "lat": 48.91839,
          "lon": 2.36257,
          "distance_to_route_km": 3.418,
          "cumulative_km": 348.065
        },
        {
          "nom": "Rosa Parks",
          "libellecourt": "ROK",
          "codes_uic": [
            "87654798"
          ],
          "lat": 48.89602,
          "lon": 2.37397,
          "distance_to_route_km": 0.942,
          "cumulative_km": 348.863
        },
        {
          "nom": "Stade de France Saint-Denis",
          "libellecourt": "SFD",
          "codes_uic": [
            "87164780"
          ],
          "lat": 48.91779,
          "lon": 2.35134,
          "distance_to_route_km": 3.868,
          "cumulative_km": 348.863
        },
        {
          "nom": "Saint-Ouen",
          "libellecourt": "SOS",
          "codes_uic": [
            "87271247"
          ],
          "lat": 48.90531,
          "lon": 2.32257,
          "distance_to_route_km": 4.244,
          "cumulative_km": 350.205
        },
        {
          "nom": "Magenta",
          "libellecourt": "MAG",
          "codes_uic": [
            "87281873"
          ],
          "lat": 48.87986,
          "lon": 2.35835,
          "distance_to_route_km": 0.567,
          "cumulative_km": 350.813
        },
        {
          "nom": "Paris Gare du Nord",
          "libellecourt": "PNO",
          "codes_uic": [
            "87271023",
            "87271031",
            "87271007"
          ],
          "lat": 48.880185,
          "lon": 2.355151,
          "distance_to_route_km": 0.79,
          "cumulative_km": 351.001
        },
        {
          "nom": "Paris Est",
          "libellecourt": "PES",
          "codes_uic": [
            "87113001"
          ],
          "lat": 48.876742,
          "lon": 2.358424,
          "distance_to_route_km": 0.391,
          "cumulative_km": 351.12
        },
        {
          "nom": "Porte de Clichy",
          "libellecourt": "PCL",
          "codes_uic": [
            "87111278"
          ],
          "lat": 48.89399,
          "lon": 2.31462,
          "distance_to_route_km": 4.121,
          "cumulative_km": 351.12
        },
        {
          "nom": "Haussmann Saint-Lazare",
          "libellecourt": "HSL",
          "codes_uic": [
            "87281899"
          ],
          "lat": 48.87478,
          "lon": 2.32862,
          "distance_to_route_km": 2.029,
          "cumulative_km": 353.195
        },
        {
          "nom": "Paris Saint-Lazare",
          "libellecourt": "PSL",
          "codes_uic": [
            "87384008"
          ],
          "lat": 48.876242,
          "lon": 2.325331,
          "distance_to_route_km": 2.319,
          "cumulative_km": 353.195
        },
        {
          "nom": "Péreire - Levallois",
          "libellecourt": "PRR",
          "codes_uic": [
            "87381012"
          ],
          "lat": 48.8853581,
          "lon": 2.2979465,
          "distance_to_route_km": 4.553,
          "cumulative_km": 353.195
        },
        {
          "nom": "Pont Cardinet",
          "libellecourt": "PTC",
          "codes_uic": [
            "87381111"
          ],
          "lat": 48.88755,
          "lon": 2.31425,
          "distance_to_route_km": 3.745,
          "cumulative_km": 353.195
        },
        {
          "nom": "Avenue du Président Kennedy Maison de Radio France",
          "libellecourt": "APK",
          "codes_uic": [
            "87543207"
          ],
          "lat": 48.853322,
          "lon": 2.279969,
          "distance_to_route_km": 4.707,
          "cumulative_km": 354.498
        },
        {
          "nom": "Champ de Mars Tour Eiffel",
          "libellecourt": "CPM",
          "codes_uic": [
            "87393058"
          ],
          "lat": 48.8551134,
          "lon": 2.2892141,
          "distance_to_route_km": 4.033,
          "cumulative_km": 354.498
        },
        {
          "nom": "Invalides",
          "libellecourt": "INV",
          "codes_uic": [
            "87393033"
          ],
          "lat": 48.8619133,
          "lon": 2.3150151,
          "distance_to_route_km": 2.326,
          "cumulative_km": 354.498
        },
        {
          "nom": "Musée d'Orsay",
          "libellecourt": "MDS",
          "codes_uic": [
            "87547307"
          ],
          "lat": 48.86079,
          "lon": 2.325671,
          "distance_to_route_km": 1.57,
          "cumulative_km": 354.498
        },
        {
          "nom": "Paris Montparnasse",
          "libellecourt": "PMP",
          "codes_uic": [
            "87391011",
            "87391003",
            "87391102"
          ],
          "lat": 48.841172,
          "lon": 2.320514,
          "distance_to_route_km": 2.234,
          "cumulative_km": 354.498
        },
        {
          "nom": "Pont de l'Alma",
          "libellecourt": "PDM",
          "codes_uic": [
            "87393041"
          ],
          "lat": 48.8625705,
          "lon": 2.3010287,
          "distance_to_route_km": 3.313,
          "cumulative_km": 354.498
        },
        {
          "nom": "Saint-Michel Notre-Dame",
          "libellecourt": "SHL",
          "codes_uic": [
            "87547315"
          ],
          "lat": 48.85348,
          "lon": 2.34545,
          "distance_to_route_km": 0.003,
          "cumulative_km": 354.589
        },
        {
          "nom": "Paris Austerlitz",
          "libellecourt": "PAZ",
          "codes_uic": [
            "87547026",
            "87547000"
          ],
          "lat": 48.842285,
          "lon": 2.364891,
          "distance_to_route_km": 0.333,
          "cumulative_km": 357.116
        },
        {
          "nom": "Paris Gare de Lyon",
          "libellecourt": "PLY",
          "codes_uic": [
            "87686006",
            "87686030"
          ],
          "lat": 48.844888,
          "lon": 2.37352,
          "distance_to_route_km": 0.321,
          "cumulative_km": 357.237
        },
        {
          "nom": "Paris Bercy Bourgogne - Pays d'Auvergne",
          "libellecourt": "PBY",
          "codes_uic": [
            "87686667"
          ],
          "lat": 48.83917,
          "lon": 2.38278,
          "distance_to_route_km": 0.449,
          "cumulative_km": 358.201
        },
        {
          "nom": "Bibliothèque François Mitterrand",
          "libellecourt": "BFM",
          "codes_uic": [
            "87328328"
          ],
          "lat": 48.82984,
          "lon": 2.37684,
          "distance_to_route_km": 0.559,
          "cumulative_km": 358.686
        },
        {
          "nom": "Ivry-sur-Seine",
          "libellecourt": "IVN",
          "codes_uic": [
            "87545301"
          ],
          "lat": 48.814371,
          "lon": 2.39099,
          "distance_to_route_km": 0.781,
          "cumulative_km": 361.101
        },
        {
          "nom": "Vitry-sur-Seine",
          "libellecourt": "VYB",
          "codes_uic": [
            "87545293"
          ],
          "lat": 48.800768,
          "lon": 2.402229,
          "distance_to_route_km": 0.612,
          "cumulative_km": 363.013
        },
        {
          "nom": "Maisons-Alfort - Alfortville",
          "libellecourt": "MFA",
          "codes_uic": [
            "87681155"
          ],
          "lat": 48.802071,
          "lon": 2.426977,
          "distance_to_route_km": 0.9,
          "cumulative_km": 364.084
        },
        {
          "nom": "Le Vert de Maisons",
          "libellecourt": "VDP",
          "codes_uic": [
            "87681247"
          ],
          "lat": 48.78934,
          "lon": 2.43148,
          "distance_to_route_km": 0.723,
          "cumulative_km": 364.89
        },
        {
          "nom": "Les Ardoines",
          "libellecourt": "LAD",
          "codes_uic": [
            "87492108"
          ],
          "lat": 48.782945,
          "lon": 2.409046,
          "distance_to_route_km": 0.569,
          "cumulative_km": 365.936
        },
        {
          "nom": "Créteil Pompadour",
          "libellecourt": "CTP",
          "codes_uic": [
            "87608802"
          ],
          "lat": 48.7715403,
          "lon": 2.4352763,
          "distance_to_route_km": 1.709,
          "cumulative_km": 366.305
        },
        {
          "nom": "Choisy-le-Roi",
          "libellecourt": "CLR",
          "codes_uic": [
            "87545285"
          ],
          "lat": 48.763974,
          "lon": 2.411102,
          "distance_to_route_km": 0.123,
          "cumulative_km": 367.96
        },
        {
          "nom": "Pont de Rungis Aéroport d'Orly",
          "libellecourt": "PRU",
          "codes_uic": [
            "87546192"
          ],
          "lat": 48.748163,
          "lon": 2.372792,
          "distance_to_route_km": 3.431,
          "cumulative_km": 367.96
        },
        {
          "nom": "Orly Ville",
          "libellecourt": "OYI",
          "codes_uic": [
            "87546200"
          ],
          "lat": 48.741815,
          "lon": 2.40265,
          "distance_to_route_km": 1.931,
          "cumulative_km": 369.459
        },
        {
          "nom": "Les Saules",
          "libellecourt": "LSW",
          "codes_uic": [
            "87546226"
          ],
          "lat": 48.7454924,
          "lon": 2.417366,
          "distance_to_route_km": 0.854,
          "cumulative_km": 369.761
        },
        {
          "nom": "Villeneuve Triage",
          "libellecourt": "VSG",
          "codes_uic": [
            "87681809"
          ],
          "lat": 48.745198,
          "lon": 2.438192,
          "distance_to_route_km": 0.168,
          "cumulative_km": 370.804
        },
        {
          "nom": "Villeneuve-le-Roi",
          "libellecourt": "VRI",
          "codes_uic": [
            "87545277"
          ],
          "lat": 48.739908,
          "lon": 2.426084,
          "distance_to_route_km": 0.881,
          "cumulative_km": 370.976
        },
        {
          "nom": "Villeneuve-Saint-Georges",
          "libellecourt": "VSB",
          "codes_uic": [
            "87681825"
          ],
          "lat": 48.730113,
          "lon": 2.446011,
          "distance_to_route_km": 0.176,
          "cumulative_km": 372.565
        },
        {
          "nom": "Yerres",
          "libellecourt": "YES",
          "codes_uic": [
            "87682112"
          ],
          "lat": 48.706759,
          "lon": 2.48337,
          "distance_to_route_km": 3.804,
          "cumulative_km": 372.909
        },
        {
          "nom": "Montgeron - Crosne",
          "libellecourt": "KRW",
          "codes_uic": [
            "87682104"
          ],
          "lat": 48.708094,
          "lon": 2.462224,
          "distance_to_route_km": 2.59,
          "cumulative_km": 373.039
        },
        {
          "nom": "Ablon-sur-Seine",
          "libellecourt": "ABL",
          "codes_uic": [
            "87545269"
          ],
          "lat": 48.725468,
          "lon": 2.419151,
          "distance_to_route_km": 0.388,
          "cumulative_km": 374.514
        },
        {
          "nom": "Vigneux-sur-Seine",
          "libellecourt": "VGS",
          "codes_uic": [
            "87681304"
          ],
          "lat": 48.70816,
          "lon": 2.41446,
          "distance_to_route_km": 0.197,
          "cumulative_km": 376.356
        },
        {
          "nom": "Athis-Mons",
          "libellecourt": "ATH",
          "codes_uic": [
            "87545251"
          ],
          "lat": 48.712557,
          "lon": 2.403749,
          "distance_to_route_km": 0.642,
          "cumulative_km": 376.546
        },
        {
          "nom": "Juvisy-sur-Orge",
          "libellecourt": "JYS",
          "codes_uic": [
            "87545244"
          ],
          "lat": 48.68917,
          "lon": 2.38267,
          "distance_to_route_km": 0.255,
          "cumulative_km": 380.783
        },
        {
          "nom": "Gravigny Balizy",
          "libellecourt": "GBI",
          "codes_uic": [
            "87393645"
          ],
          "lat": 48.6851718,
          "lon": 2.317846,
          "distance_to_route_km": 4.769,
          "cumulative_km": 382.375
        },
        {
          "nom": "Petit Vaux",
          "libellecourt": "PVY",
          "codes_uic": [
            "87393652"
          ],
          "lat": 48.675859,
          "lon": 2.3339755,
          "distance_to_route_km": 3.542,
          "cumulative_km": 382.375
        },
        {
          "nom": "Savigny-sur-Orge",
          "libellecourt": "SAO",
          "codes_uic": [
            "87545236"
          ],
          "lat": 48.67614,
          "lon": 2.35173,
          "distance_to_route_km": 2.242,
          "cumulative_km": 382.375
        },
        {
          "nom": "Épinay-sur-Orge",
          "libellecourt": "EYO",
          "codes_uic": [
            "87545228"
          ],
          "lat": 48.66952,
          "lon": 2.33182,
          "distance_to_route_km": 3.822,
          "cumulative_km": 382.381
        },
        {
          "nom": "Viry-Châtillon",
          "libellecourt": "VWC",
          "codes_uic": [
            "87681312"
          ],
          "lat": 48.676182,
          "lon": 2.386391,
          "distance_to_route_km": 0.084,
          "cumulative_km": 382.78
        },
        {
          "nom": "Grigny Centre",
          "libellecourt": "GGG",
          "codes_uic": [
            "87681379"
          ],
          "lat": 48.65343,
          "lon": 2.395797,
          "distance_to_route_km": 0.932,
          "cumulative_km": 385.737
        },
        {
          "nom": "Orangis Bois de l'Épine",
          "libellecourt": "OBP",
          "codes_uic": [
            "87681346"
          ],
          "lat": 48.63626,
          "lon": 2.407736,
          "distance_to_route_km": 2.253,
          "cumulative_km": 386.598
        },
        {
          "nom": "Ris-Orangis",
          "libellecourt": "RIS",
          "codes_uic": [
            "87681338"
          ],
          "lat": 48.659442,
          "lon": 2.41442,
          "distance_to_route_km": 0.169,
          "cumulative_km": 386.937
        },
        {
          "nom": "Grand Bourg",
          "libellecourt": "GBG",
          "codes_uic": [
            "87681353"
          ],
          "lat": 48.648004,
          "lon": 2.435939,
          "distance_to_route_km": 0.034,
          "cumulative_km": 388.942
        },
        {
          "nom": "Évry-Courcouronnes",
          "libellecourt": "EVC",
          "codes_uic": [
            "87681387"
          ],
          "lat": 48.625507,
          "lon": 2.428581,
          "distance_to_route_km": 2.05,
          "cumulative_km": 390.352
        },
        {
          "nom": "Évry Val de Seine",
          "libellecourt": "EVR",
          "codes_uic": [
            "87681361"
          ],
          "lat": 48.63442,
          "lon": 2.45209,
          "distance_to_route_km": 0.186,
          "cumulative_km": 390.837
        },
        {
          "nom": "Le Bras de Fer",
          "libellecourt": "BFX",
          "codes_uic": [
            "87681395"
          ],
          "lat": 48.623287,
          "lon": 2.450625,
          "distance_to_route_km": 1.254,
          "cumulative_km": 391.25
        },
        {
          "nom": "Corbeil-Essonnes",
          "libellecourt": "COE",
          "codes_uic": [
            "87681007"
          ],
          "lat": 48.61403,
          "lon": 2.47401,
          "distance_to_route_km": 0.606,
          "cumulative_km": 395.089
        },
        {
          "nom": "Essonnes Robinson",
          "libellecourt": "ESO",
          "codes_uic": [
            "87681601"
          ],
          "lat": 48.606095,
          "lon": 2.463701,
          "distance_to_route_km": 1.504,
          "cumulative_km": 396.482
        },
        {
          "nom": "Villabé",
          "libellecourt": "VBV",
          "codes_uic": [
            "87681619"
          ],
          "lat": 48.592637,
          "lon": 2.461572,
          "distance_to_route_km": 1.642,
          "cumulative_km": 398.664
        },
        {
          "nom": "Moulin Galant",
          "libellecourt": "MJW",
          "codes_uic": [
            "87681403"
          ],
          "lat": 48.58626,
          "lon": 2.47332,
          "distance_to_route_km": 0.657,
          "cumulative_km": 399.632
        },
        {
          "nom": "Mennecy",
          "libellecourt": "MNY",
          "codes_uic": [
            "87681411"
          ],
          "lat": 48.5709075,
          "lon": 2.433165,
          "distance_to_route_km": 3.426,
          "cumulative_km": 400.726
        },
        {
          "nom": "Le Plessis Chenet",
          "libellecourt": "IBM",
          "codes_uic": [
            "87681627"
          ],
          "lat": 48.5735652,
          "lon": 2.479586,
          "distance_to_route_km": 0.054,
          "cumulative_km": 400.906
        },
        {
          "nom": "Le Coudray-Montceaux",
          "libellecourt": "CEX",
          "codes_uic": [
            "87681635"
          ],
          "lat": 48.5661679,
          "lon": 2.4924649,
          "distance_to_route_km": 0.079,
          "cumulative_km": 402.166
        },
        {
          "nom": "Savigny-le-Temple - Nandy",
          "libellecourt": "ZTN",
          "codes_uic": [
            "87682187"
          ],
          "lat": 48.595519,
          "lon": 2.583678,
          "distance_to_route_km": 4.014,
          "cumulative_km": 406.231
        },
        {
          "nom": "Cesson",
          "libellecourt": "CES",
          "codes_uic": [
            "87682161"
          ],
          "lat": 48.56563,
          "lon": 2.5938,
          "distance_to_route_km": 3.417,
          "cumulative_km": 406.774
        },
        {
          "nom": "Saint-Fargeau-Ponthierry",
          "libellecourt": "XFA",
          "codes_uic": [
            "87682542"
          ],
          "lat": 48.564549,
          "lon": 2.542493,
          "distance_to_route_km": 0.242,
          "cumulative_km": 407.16
        },
        {
          "nom": "Ponthierry - Pringy",
          "libellecourt": "POP",
          "codes_uic": [
            "87682526"
          ],
          "lat": 48.534933,
          "lon": 2.54459,
          "distance_to_route_km": 0.266,
          "cumulative_km": 411.257
        },
        {
          "nom": "Boissise-le-Roi",
          "libellecourt": "BKR",
          "codes_uic": [
            "87682518"
          ],
          "lat": 48.529319,
          "lon": 2.572953,
          "distance_to_route_km": 0.039,
          "cumulative_km": 414.223
        },
        {
          "nom": "Vosves",
          "libellecourt": "VOM",
          "codes_uic": [
            "87682500"
          ],
          "lat": 48.5151115,
          "lon": 2.5991469,
          "distance_to_route_km": 0.023,
          "cumulative_km": 416.922
        },
        {
          "nom": "Le Mée-sur-Seine",
          "libellecourt": "WEE",
          "codes_uic": [
            "87682179"
          ],
          "lat": 48.540086,
          "lon": 2.624116,
          "distance_to_route_km": 1.513,
          "cumulative_km": 420.537
        },
        {
          "nom": "Melun",
          "libellecourt": "MEL",
          "codes_uic": [
            "87682005"
          ],
          "lat": 48.527662,
          "lon": 2.655404,
          "distance_to_route_km": 0.456,
          "cumulative_km": 423.006
        },
        {
          "nom": "Livry-sur-Seine",
          "libellecourt": "LYQ",
          "codes_uic": [
            "87682401"
          ],
          "lat": 48.5104579,
          "lon": 2.6788796,
          "distance_to_route_km": 0.726,
          "cumulative_km": 425.183
        },
        {
          "nom": "Chartrettes",
          "libellecourt": "CJR",
          "codes_uic": [
            "87682419"
          ],
          "lat": 48.4870771,
          "lon": 2.6950059,
          "distance_to_route_km": 0.717,
          "cumulative_km": 429.365
        },
        {
          "nom": "Bois-le-Roi",
          "libellecourt": "BJR",
          "codes_uic": [
            "87682203"
          ],
          "lat": 48.475567,
          "lon": 2.691606,
          "distance_to_route_km": 0.587,
          "cumulative_km": 429.432
        },
        {
          "nom": "Fontaine-le-Port",
          "libellecourt": "FPO",
          "codes_uic": [
            "87682427"
          ],
          "lat": 48.4871358,
          "lon": 2.7514043,
          "distance_to_route_km": 0.583,
          "cumulative_km": 433.648
        },
        {
          "nom": "Héricy",
          "libellecourt": "HER",
          "codes_uic": [
            "87682435"
          ],
          "lat": 48.4424848,
          "lon": 2.7605339,
          "distance_to_route_km": 0.782,
          "cumulative_km": 439.525
        },
        {
          "nom": "Vulaines-sur-Seine - Samoreau",
          "libellecourt": "VUN",
          "codes_uic": [
            "87682443"
          ],
          "lat": 48.4305468,
          "lon": 2.7531008,
          "distance_to_route_km": 0.17,
          "cumulative_km": 442.222
        },
        {
          "nom": "Fontainebleau - Avon",
          "libellecourt": "FON",
          "codes_uic": [
            "87682211"
          ],
          "lat": 48.416371,
          "lon": 2.72634,
          "distance_to_route_km": 1.818,
          "cumulative_km": 443.273
        },
        {
          "nom": "Thomery",
          "libellecourt": "TMR",
          "codes_uic": [
            "87682252"
          ],
          "lat": 48.394462,
          "lon": 2.763995,
          "distance_to_route_km": 1.944,
          "cumulative_km": 444.868
        },
        {
          "nom": "Champagne-sur-Seine",
          "libellecourt": "CME",
          "codes_uic": [
            "87682450"
          ],
          "lat": 48.406531,
          "lon": 2.799184,
          "distance_to_route_km": 0.115,
          "cumulative_km": 447.908
        },
        {
          "nom": "Moret - Veneux-les-Sablons",
          "libellecourt": "MOR",
          "codes_uic": [
            "87682278"
          ],
          "lat": 48.37838,
          "lon": 2.79941,
          "distance_to_route_km": 0.855,
          "cumulative_km": 452.224
        },
        {
          "nom": "Saint-Mammès",
          "libellecourt": "SFI",
          "codes_uic": [
            "87682294"
          ],
          "lat": 48.382171,
          "lon": 2.81593,
          "distance_to_route_km": 0.258,
          "cumulative_km": 452.846
        },
        {
          "nom": "Vernou-la-Celle-sur-Seine",
          "libellecourt": "VSS",
          "codes_uic": [
            "87682468"
          ],
          "lat": 48.3864547,
          "lon": 2.8424649,
          "distance_to_route_km": 1.898,
          "cumulative_km": 453.888
        },
        {
          "nom": "Montigny-sur-Loing",
          "libellecourt": "MKN",
          "codes_uic": [
            "87684100"
          ],
          "lat": 48.33661,
          "lon": 2.738561,
          "distance_to_route_km": 1.372,
          "cumulative_km": 462.247
        },
        {
          "nom": "Bourron-Marlotte - Grez",
          "libellecourt": "BOM",
          "codes_uic": [
            "87684118"
          ],
          "lat": 48.3326884,
          "lon": 2.6924552,
          "distance_to_route_km": 2.811,
          "cumulative_km": 466.31
        },
        {
          "nom": "Nemours - Saint-Pierre",
          "libellecourt": "NSP",
          "codes_uic": [
            "87684126"
          ],
          "lat": 48.267884,
          "lon": 2.685754,
          "distance_to_route_km": 0.239,
          "cumulative_km": 471.671
        },
        {
          "nom": "Bagneaux-sur-Loing",
          "libellecourt": "BXN",
          "codes_uic": [
            "87684191"
          ],
          "lat": 48.2304802,
          "lon": 2.7033327,
          "distance_to_route_km": 0.362,
          "cumulative_km": 476.081
        },
        {
          "nom": "Souppes - Château-Landon",
          "libellecourt": "SPP",
          "codes_uic": [
            "87684217"
          ],
          "lat": 48.181907,
          "lon": 2.734971,
          "distance_to_route_km": 0.735,
          "cumulative_km": 482.469
        },
        {
          "nom": "Dordives",
          "libellecourt": "DDI",
          "codes_uic": [
            "87684233"
          ],
          "lat": 48.1471796,
          "lon": 2.7628787,
          "distance_to_route_km": 0.732,
          "cumulative_km": 486.943
        },
        {
          "nom": "Ferrières - Fontenay",
          "libellecourt": "FFY",
          "codes_uic": [
            "87684241"
          ],
          "lat": 48.0964767,
          "lon": 2.7726332,
          "distance_to_route_km": 0.74,
          "cumulative_km": 492.519
        },
        {
          "nom": "Montargis",
          "libellecourt": "MSR",
          "codes_uic": [
            "87684001"
          ],
          "lat": 48.006862,
          "lon": 2.742783,
          "distance_to_route_km": 1.064,
          "cumulative_km": 505.074
        },
        {
          "nom": "Briare",
          "libellecourt": "BEW",
          "codes_uic": [
            "87696088"
          ],
          "lat": 47.6464312,
          "lon": 2.7337154,
          "distance_to_route_km": 0.763,
          "cumulative_km": 560.07
        },
        {
          "nom": "Gien",
          "libellecourt": "GIE",
          "codes_uic": [
            "87684290"
          ],
          "lat": 47.699088,
          "lon": 2.636205,
          "distance_to_route_km": 2.043,
          "cumulative_km": 574.152
        },
        {
          "nom": "Les Aubrais",
          "libellecourt": "LAB",
          "codes_uic": [
            "87543017"
          ],
          "lat": 47.926801,
          "lon": 1.906629,
          "distance_to_route_km": 3.206,
          "cumulative_km": 652.175
        },
        {
          "nom": "Orléans",
          "libellecourt": "ORL",
          "codes_uic": [
            "87543009"
          ],
          "lat": 47.90796,
          "lon": 1.904666,
          "distance_to_route_km": 1.107,
          "cumulative_km": 653.472
        },
        {
          "nom": "La Chapelle-Saint-Mesmin",
          "libellecourt": "LCS",
          "codes_uic": [
            "87543371"
          ],
          "lat": 47.8929293,
          "lon": 1.8268193,
          "distance_to_route_km": 1.721,
          "cumulative_km": 659.12
        },
        {
          "nom": "Chaingy Fourneaux Plage",
          "libellecourt": "CFX",
          "codes_uic": [
            "87574111"
          ],
          "lat": 47.8770705,
          "lon": 1.782422,
          "distance_to_route_km": 1.529,
          "cumulative_km": 664.977
        },
        {
          "nom": "Saint-Ay",
          "libellecourt": "LBZ",
          "codes_uic": [
            "87574129"
          ],
          "lat": 47.863133,
          "lon": 1.7499597,
          "distance_to_route_km": 1.437,
          "cumulative_km": 667.175
        },
        {
          "nom": "Meung-sur-Loire",
          "libellecourt": "MGL",
          "codes_uic": [
            "87574137"
          ],
          "lat": 47.829926,
          "lon": 1.691928,
          "distance_to_route_km": 0.782,
          "cumulative_km": 673.593
        },
        {
          "nom": "Baule",
          "libellecourt": "BLJ",
          "codes_uic": [
            "87574152"
          ],
          "lat": 47.8117535,
          "lon": 1.668127,
          "distance_to_route_km": 1.151,
          "cumulative_km": 675.544
        },
        {
          "nom": "Beaugency",
          "libellecourt": "BGY",
          "codes_uic": [
            "87574160"
          ],
          "lat": 47.778365,
          "lon": 1.625938,
          "distance_to_route_km": 0.656,
          "cumulative_km": 681.823
        },
        {
          "nom": "Mer",
          "libellecourt": "MER",
          "codes_uic": [
            "87574194"
          ],
          "lat": 47.70586,
          "lon": 1.506373,
          "distance_to_route_km": 3.173,
          "cumulative_km": 695.785
        },
        {
          "nom": "Suèvres",
          "libellecourt": "SVK",
          "codes_uic": [
            "87574236"
          ],
          "lat": 47.6802248,
          "lon": 1.4540981,
          "distance_to_route_km": 2.516,
          "cumulative_km": 704.38
        },
        {
          "nom": "Menars",
          "libellecourt": "EIR",
          "codes_uic": [
            "87574244"
          ],
          "lat": 47.6450036,
          "lon": 1.405617,
          "distance_to_route_km": 0.866,
          "cumulative_km": 707.595
        },
        {
          "nom": "La Chaussée-Saint-Victor",
          "libellecourt": "WSV",
          "codes_uic": [
            "87574251"
          ],
          "lat": 47.6127952,
          "lon": 1.3537834,
          "distance_to_route_km": 1.332,
          "cumulative_km": 712.495
        },
        {
          "nom": "Blois - Chambord",
          "libellecourt": "BLO",
          "codes_uic": [
            "87574004"
          ],
          "lat": 47.585445,
          "lon": 1.323823,
          "distance_to_route_km": 0.895,
          "cumulative_km": 717.062
        },
        {
          "nom": "Chouzy-sur-Cisse",
          "libellecourt": "CZV",
          "codes_uic": [
            "87574301"
          ],
          "lat": 47.5203249,
          "lon": 1.247846,
          "distance_to_route_km": 2.253,
          "cumulative_km": 729.202
        },
        {
          "nom": "Onzain - Chaumont-sur-Loire",
          "libellecourt": "OZA",
          "codes_uic": [
            "87574319"
          ],
          "lat": 47.492,
          "lon": 1.18595,
          "distance_to_route_km": 1.031,
          "cumulative_km": 736.583
        },
        {
          "nom": "Veuves - Monteaux",
          "libellecourt": "VVU",
          "codes_uic": [
            "87574327"
          ],
          "lat": 47.4756722,
          "lon": 1.1238749,
          "distance_to_route_km": 0.89,
          "cumulative_km": 742.43
        },
        {
          "nom": "Limeray",
          "libellecourt": "LIZ",
          "codes_uic": [
            "87574335"
          ],
          "lat": 47.4502088,
          "lon": 1.0499661,
          "distance_to_route_km": 1.626,
          "cumulative_km": 750.977
        },
        {
          "nom": "Amboise",
          "libellecourt": "AMQ",
          "codes_uic": [
            "87574343"
          ],
          "lat": 47.42148,
          "lon": 0.981299,
          "distance_to_route_km": 0.865,
          "cumulative_km": 759.091
        },
        {
          "nom": "Noizay",
          "libellecourt": "NIY",
          "codes_uic": [
            "87574368"
          ],
          "lat": 47.4096869,
          "lon": 0.8959456,
          "distance_to_route_km": 2.191,
          "cumulative_km": 765.205
        },
        {
          "nom": "Saint-Martin-le-Beau",
          "libellecourt": "XMK",
          "codes_uic": [
            "87574459"
          ],
          "lat": 47.3552058,
          "lon": 0.9058418,
          "distance_to_route_km": 3.787,
          "cumulative_km": 767.292
        },
        {
          "nom": "Azay-sur-Cher",
          "libellecourt": "EUR",
          "codes_uic": [
            "87574442"
          ],
          "lat": 47.3652695,
          "lon": 0.8599885,
          "distance_to_route_km": 2.069,
          "cumulative_km": 771.386
        },
        {
          "nom": "Véretz - Montlouis",
          "libellecourt": "VZM",
          "codes_uic": [
            "87574434"
          ],
          "lat": 47.3715058,
          "lon": 0.8199079,
          "distance_to_route_km": 1.762,
          "cumulative_km": 775.038
        },
        {
          "nom": "Montlouis-sur-Loire",
          "libellecourt": "NTU",
          "codes_uic": [
            "87571273"
          ],
          "lat": 47.3915307,
          "lon": 0.8173987,
          "distance_to_route_km": 0.034,
          "cumulative_km": 775.9
        },
        {
          "nom": "Saint-Pierre-des-Corps",
          "libellecourt": "SPC",
          "codes_uic": [
            "87571240"
          ],
          "lat": 47.386099,
          "lon": 0.72355,
          "distance_to_route_km": 1.206,
          "cumulative_km": 783.832
        },
        {
          "nom": "Tours",
          "libellecourt": "TRS",
          "codes_uic": [
            "87571000"
          ],
          "lat": 47.389781,
          "lon": 0.693703,
          "distance_to_route_km": 0.123,
          "cumulative_km": 786.948
        },
        {
          "nom": "Joué-lès-Tours",
          "libellecourt": "JLT",
          "codes_uic": [
            "87571885"
          ],
          "lat": 47.3541741,
          "lon": 0.6675586,
          "distance_to_route_km": 2.814,
          "cumulative_km": 789.806
        },
        {
          "nom": "La Douzillère",
          "libellecourt": "DZD",
          "codes_uic": [
            "87009696"
          ],
          "lat": 47.3388167,
          "lon": 0.6528244,
          "distance_to_route_km": 4.794,
          "cumulative_km": 789.829
        },
        {
          "nom": "Veigné",
          "libellecourt": "VGZ",
          "codes_uic": [
            "87571414"
          ],
          "lat": 47.2915255,
          "lon": 0.7348815,
          "distance_to_route_km": 0.016,
          "cumulative_km": 801.651
        },
        {
          "nom": "Montbazon",
          "libellecourt": "MNZ",
          "codes_uic": [
            "87571406"
          ],
          "lat": 47.2917191,
          "lon": 0.7214769,
          "distance_to_route_km": 0.951,
          "cumulative_km": 801.722
        },
        {
          "nom": "Esvres sur Indre",
          "libellecourt": "ESV",
          "codes_uic": [
            "87571422"
          ],
          "lat": 47.2841016,
          "lon": 0.7816519,
          "distance_to_route_km": 3.271,
          "cumulative_km": 802.874
        },
        {
          "nom": "Sainte-Maure - Noyant",
          "libellecourt": "SYT",
          "codes_uic": [
            "87575050"
          ],
          "lat": 47.1112361,
          "lon": 0.5769439,
          "distance_to_route_km": 2.124,
          "cumulative_km": 831.283
        },
        {
          "nom": "Maillé",
          "libellecourt": "MAX",
          "codes_uic": [
            "87575068"
          ],
          "lat": 47.0533855,
          "lon": 0.5830236,
          "distance_to_route_km": 0.018,
          "cumulative_km": 837.778
        },
        {
          "nom": "Port-de-Piles",
          "libellecourt": "PPJ",
          "codes_uic": [
            "87575076"
          ],
          "lat": 47.0102599,
          "lon": 0.5989179,
          "distance_to_route_km": 2.802,
          "cumulative_km": 847.645
        },
        {
          "nom": "Les Ormes",
          "libellecourt": "ORE",
          "codes_uic": [
            "87575118"
          ],
          "lat": 46.9718269,
          "lon": 0.6079476,
          "distance_to_route_km": 1.655,
          "cumulative_km": 852.23
        },
        {
          "nom": "Dangé-Saint-Romain",
          "libellecourt": "DGE",
          "codes_uic": [
            "87575126"
          ],
          "lat": 46.9378397,
          "lon": 0.6087754,
          "distance_to_route_km": 0.839,
          "cumulative_km": 855.924
        },
        {
          "nom": "Ingrandes sur Vienne",
          "libellecourt": "IGR",
          "codes_uic": [
            "87575134"
          ],
          "lat": 46.8746283,
          "lon": 0.5691164,
          "distance_to_route_km": 0.903,
          "cumulative_km": 863.288
        },
        {
          "nom": "Châtellerault",
          "libellecourt": "CRT",
          "codes_uic": [
            "87575142"
          ],
          "lat": 46.818594,
          "lon": 0.549279,
          "distance_to_route_km": 0.687,
          "cumulative_km": 870.784
        },
        {
          "nom": "Nerpuy",
          "libellecourt": "NPY",
          "codes_uic": [
            "87575167"
          ],
          "lat": 46.7834177,
          "lon": 0.5256884,
          "distance_to_route_km": 0.762,
          "cumulative_km": 876.724
        },
        {
          "nom": "Naintré",
          "libellecourt": "NIB",
          "codes_uic": [
            "87575175"
          ],
          "lat": 46.7595303,
          "lon": 0.4963446,
          "distance_to_route_km": 3.15,
          "cumulative_km": 878.305
        },
        {
          "nom": "Lussac-les-Châteaux",
          "libellecourt": "LLX",
          "codes_uic": [
            "87575845"
          ],
          "lat": 46.4051106,
          "lon": 0.7186918,
          "distance_to_route_km": 1.356,
          "cumulative_km": 928.855
        },
        {
          "nom": "Angoulême",
          "libellecourt": "ANG",
          "codes_uic": [
            "87583005"
          ],
          "lat": 45.653572,
          "lon": 0.164608,
          "distance_to_route_km": 0.718,
          "cumulative_km": 1087.007
        },
        {
          "nom": "La Couronne",
          "libellecourt": "LCO",
          "codes_uic": [
            "87583617"
          ],
          "lat": 45.604570970062376,
          "lon": 0.1011570895580505,
          "distance_to_route_km": 4.46,
          "cumulative_km": 1095.323
        },
        {
          "nom": "Châteauneuf-sur-Charente",
          "libellecourt": "CSC",
          "codes_uic": [
            "87491506"
          ],
          "lat": 45.599836,
          "lon": -0.0502,
          "distance_to_route_km": 0.374,
          "cumulative_km": 1116.843
        },
        {
          "nom": "Coutras",
          "libellecourt": "COU",
          "codes_uic": [
            "87584516"
          ],
          "lat": 45.03661,
          "lon": -0.13169,
          "distance_to_route_km": 3.202,
          "cumulative_km": 1197.707
        },
        {
          "nom": "Saint-Denis-de-Pile",
          "libellecourt": "XDS",
          "codes_uic": [
            "87584508"
          ],
          "lat": 44.9786053,
          "lon": -0.1980825,
          "distance_to_route_km": 0.129,
          "cumulative_km": 1207.554
        },
        {
          "nom": "Libourne",
          "libellecourt": "LIB",
          "codes_uic": [
            "87584052"
          ],
          "lat": 44.915888,
          "lon": -0.236344,
          "distance_to_route_km": 0.409,
          "cumulative_km": 1221.806
        },
        {
          "nom": "Saint-Émilion",
          "libellecourt": "SEI",
          "codes_uic": [
            "87584102"
          ],
          "lat": 44.8811665,
          "lon": -0.1592003,
          "distance_to_route_km": 0.326,
          "cumulative_km": 1230.012
        },
        {
          "nom": "Cadaujac",
          "libellecourt": "CDJ",
          "codes_uic": [
            "87582684"
          ],
          "lat": 44.7520628,
          "lon": -0.5376186,
          "distance_to_route_km": 3.971,
          "cumulative_km": 1274.062
        },
        {
          "nom": "Cenon",
          "libellecourt": "CBX",
          "codes_uic": [
            "87581595"
          ],
          "lat": 44.8563465,
          "lon": -0.5336487,
          "distance_to_route_km": 2.795,
          "cumulative_km": 1281.533
        },
        {
          "nom": "Caudéran Mérignac",
          "libellecourt": "CUD",
          "codes_uic": [
            "87581538"
          ],
          "lat": 44.84288,
          "lon": -0.6274337,
          "distance_to_route_km": 4.954,
          "cumulative_km": 1282.031
        },
        {
          "nom": "Mérignac Arlac",
          "libellecourt": "MRF",
          "codes_uic": [
            "87278259"
          ],
          "lat": 44.8265601,
          "lon": -0.6261402,
          "distance_to_route_km": 4.944,
          "cumulative_km": 1282.031
        },
        {
          "nom": "Talence Médoquine",
          "libellecourt": "TLM",
          "codes_uic": [
            "87748350"
          ],
          "lat": 44.81649,
          "lon": -0.60062,
          "distance_to_route_km": 3.591,
          "cumulative_km": 1282.279
        },
        {
          "nom": "Bordeaux Saint-Jean",
          "libellecourt": "BXJ",
          "codes_uic": [
            "87581009"
          ],
          "lat": 44.825873,
          "lon": -0.556697,
          "distance_to_route_km": 0.184,
          "cumulative_km": 1283.573
        },
        {
          "nom": "Bègles",
          "libellecourt": "BGL",
          "codes_uic": [
            "87581801"
          ],
          "lat": 44.7995389,
          "lon": -0.5552495,
          "distance_to_route_km": 0.221,
          "cumulative_km": 1287.519
        },
        {
          "nom": "Villenave-d'Ornon",
          "libellecourt": "VIO",
          "codes_uic": [
            "87581835"
          ],
          "lat": 44.7683428,
          "lon": -0.5472574,
          "distance_to_route_km": 2.615,
          "cumulative_km": 1288.982
        },
        {
          "nom": "Pessac",
          "libellecourt": "PSC",
          "codes_uic": [
            "87581751"
          ],
          "lat": 44.80461,
          "lon": -0.63185,
          "distance_to_route_km": 4.144,
          "cumulative_km": 1293.376
        },
        {
          "nom": "Pessac Alouette",
          "libellecourt": "ATF",
          "codes_uic": [
            "87581793"
          ],
          "lat": 44.793355,
          "lon": -0.65965,
          "distance_to_route_km": 4.658,
          "cumulative_km": 1293.483
        },
        {
          "nom": "Saint-Médard-d'Eyrans",
          "libellecourt": "SYS",
          "codes_uic": [
            "87582692"
          ],
          "lat": 44.7168571,
          "lon": -0.5057172,
          "distance_to_route_km": 2.996,
          "cumulative_km": 1304.58
        },
        {
          "nom": "Langon",
          "libellecourt": "LGE",
          "codes_uic": [
            "87582775"
          ],
          "lat": 44.555448,
          "lon": -0.25554,
          "distance_to_route_km": 0.129,
          "cumulative_km": 1381.31
        },
        {
          "nom": "Preignac",
          "libellecourt": "PRG",
          "codes_uic": [
            "87582767"
          ],
          "lat": 44.5783064,
          "lon": -0.3022296,
          "distance_to_route_km": 4.585,
          "cumulative_km": 1381.735
        },
        {
          "nom": "Saint-Macaire",
          "libellecourt": "SNW",
          "codes_uic": [
            "87582825"
          ],
          "lat": 44.5686216,
          "lon": -0.2270601,
          "distance_to_route_km": 0.485,
          "cumulative_km": 1384.811
        },
        {
          "nom": "Saint-Pierre-d'Aurillac",
          "libellecourt": "SPX",
          "codes_uic": [
            "87582833"
          ],
          "lat": 44.5752452,
          "lon": -0.1876216,
          "distance_to_route_km": 0.778,
          "cumulative_km": 1387.737
        },
        {
          "nom": "Caudrot",
          "libellecourt": "KDT",
          "codes_uic": [
            "87582841"
          ],
          "lat": 44.5801152,
          "lon": -0.1452784,
          "distance_to_route_km": 1.823,
          "cumulative_km": 1390.09
        },
        {
          "nom": "Gironde-sur-Dropt",
          "libellecourt": "GID",
          "codes_uic": [
            "87582858"
          ],
          "lat": 44.583292,
          "lon": -0.0920127,
          "distance_to_route_km": 3.089,
          "cumulative_km": 1394.84
        },
        {
          "nom": "La Réole",
          "libellecourt": "REO",
          "codes_uic": [
            "87582866"
          ],
          "lat": 44.579742,
          "lon": -0.03057,
          "distance_to_route_km": 1.782,
          "cumulative_km": 1401.409
        },
        {
          "nom": "Lamothe-Landerron",
          "libellecourt": "LOH",
          "codes_uic": [
            "87582882"
          ],
          "lat": 44.5628433,
          "lon": 0.0451406,
          "distance_to_route_km": 3.86,
          "cumulative_km": 1405.279
        },
        {
          "nom": "Sainte-Bazeille",
          "libellecourt": "XBZ",
          "codes_uic": [
            "87586479"
          ],
          "lat": 44.5326935,
          "lon": 0.0931269,
          "distance_to_route_km": 4.44,
          "cumulative_km": 1410.244
        },
        {
          "nom": "Tonneins",
          "libellecourt": "TON",
          "codes_uic": [
            "87586651"
          ],
          "lat": 44.392796,
          "lon": 0.314093,
          "distance_to_route_km": 4.464,
          "cumulative_km": 1434.509
        },
        {
          "nom": "Aiguillon",
          "libellecourt": "AIN",
          "codes_uic": [
            "87586693"
          ],
          "lat": 44.2987224,
          "lon": 0.3352388,
          "distance_to_route_km": 4.493,
          "cumulative_km": 1442.865
        },
        {
          "nom": "Mont-de-Marsan",
          "libellecourt": "MMR",
          "codes_uic": [
            "87671016"
          ],
          "lat": 43.884898,
          "lon": -0.50466,
          "distance_to_route_km": 0.399,
          "cumulative_km": 1562.465
        },
        {
          "nom": "Dax",
          "libellecourt": "DAX",
          "codes_uic": [
            "87673202"
          ],
          "lat": 43.720472,
          "lon": -1.050301,
          "distance_to_route_km": 0.157,
          "cumulative_km": 1630.452
        },
        {
          "nom": "Saubusse",
          "libellecourt": "SQB",
          "codes_uic": [
            "87673251"
          ],
          "lat": 43.6603331,
          "lon": -1.1901703,
          "distance_to_route_km": 0.535,
          "cumulative_km": 1655.615
        },
        {
          "nom": "Saint-Geours-de-Maremne",
          "libellecourt": "SGQ",
          "codes_uic": [
            "87673269"
          ],
          "lat": 43.6713719,
          "lon": -1.2412599,
          "distance_to_route_km": 3.965,
          "cumulative_km": 1656.747
        },
        {
          "nom": "Urt",
          "libellecourt": "URT",
          "codes_uic": [
            "87672386"
          ],
          "lat": 43.4993785,
          "lon": -1.3005564,
          "distance_to_route_km": 0.42,
          "cumulative_km": 1684.392
        },
        {
          "nom": "Saint-Jean-Pied-de-Port",
          "libellecourt": "SJP",
          "codes_uic": [
            "87673723"
          ],
          "lat": 43.1679394,
          "lon": -1.2380129,
          "distance_to_route_km": 0.532,
          "cumulative_km": 1779.551
        }
      ]
    },
    "EV4": {
      "route_id": "EV4",
      "name": "La Vélomaritime",
      "total_km": 1513.024,
      "stations": [
        {
          "nom": "Morlaix",
          "libellecourt": "MXR",
          "codes_uic": [
            "87474338"
          ],
          "lat": 48.57797,
          "lon": -3.832514,
          "distance_to_route_km": 0.375,
          "cumulative_km": 30.509
        },
        {
          "nom": "Lannion",
          "libellecourt": "LNI",
          "codes_uic": [
            "87473223"
          ],
          "lat": 48.727638,
          "lon": -3.460353,
          "distance_to_route_km": 0.126,
          "cumulative_km": 100.681
        },
        {
          "nom": "Lancerf",
          "libellecourt": "LNF",
          "codes_uic": [
            "87473850"
          ],
          "lat": 48.761873,
          "lon": -3.1181396,
          "distance_to_route_km": 1.86,
          "cumulative_km": 178.018
        },
        {
          "nom": "Traou Nez",
          "libellecourt": "TNZ",
          "codes_uic": [
            "87322347"
          ],
          "lat": 48.74858987607243,
          "lon": -3.1349542664976724,
          "distance_to_route_km": 3.734,
          "cumulative_km": 178.034
        },
        {
          "nom": "Paimpol",
          "libellecourt": "PIP",
          "codes_uic": [
            "87473868"
          ],
          "lat": 48.77694,
          "lon": -3.0460958,
          "distance_to_route_km": 0.045,
          "cumulative_km": 182.388
        },
        {
          "nom": "Saint-Brieuc",
          "libellecourt": "SBC",
          "codes_uic": [
            "87473009"
          ],
          "lat": 48.50758,
          "lon": -2.765,
          "distance_to_route_km": 2.527,
          "cumulative_km": 246.899
        },
        {
          "nom": "Yffiniac",
          "libellecourt": "YFV",
          "codes_uic": [
            "87473116"
          ],
          "lat": 48.4702462,
          "lon": -2.6524629,
          "distance_to_route_km": 2.787,
          "cumulative_km": 255.865
        },
        {
          "nom": "La Hisse",
          "libellecourt": "HIZ",
          "codes_uic": [
            "87478156"
          ],
          "lat": 48.4961248,
          "lon": -2.0036608,
          "distance_to_route_km": 3.489,
          "cumulative_km": 344.399
        },
        {
          "nom": "Pleudihen-sur-Rance",
          "libellecourt": "PUH",
          "codes_uic": [
            "87478149"
          ],
          "lat": 48.4993822,
          "lon": -1.9617515,
          "distance_to_route_km": 3.868,
          "cumulative_km": 346.876
        },
        {
          "nom": "Miniac-Morvan",
          "libellecourt": "MIN",
          "codes_uic": [
            "87478131"
          ],
          "lat": 48.5315134,
          "lon": -1.914787,
          "distance_to_route_km": 3.306,
          "cumulative_km": 349.444
        },
        {
          "nom": "Saint-Malo",
          "libellecourt": "SMP",
          "codes_uic": [
            "87478107"
          ],
          "lat": 48.646859,
          "lon": -2.004158,
          "distance_to_route_km": 0.897,
          "cumulative_km": 369.387
        },
        {
          "nom": "La Gouesnière - Cancale - Saint-Méloir-des-Ondes",
          "libellecourt": "LGO",
          "codes_uic": [
            "87478099"
          ],
          "lat": 48.6144207,
          "lon": -1.9058105,
          "distance_to_route_km": 2.839,
          "cumulative_km": 394.904
        },
        {
          "nom": "La Fresnais",
          "libellecourt": "FSN",
          "codes_uic": [
            "87478081"
          ],
          "lat": 48.593655,
          "lon": -1.8432199,
          "distance_to_route_km": 2.217,
          "cumulative_km": 402.656
        },
        {
          "nom": "Pontorson - Mont-Saint-Michel",
          "libellecourt": "PON",
          "codes_uic": [
            "87478263"
          ],
          "lat": 48.5527286,
          "lon": -1.5049307,
          "distance_to_route_km": 2.786,
          "cumulative_km": 428.52
        },
        {
          "nom": "Vire",
          "libellecourt": "VIR",
          "codes_uic": [
            "87448159"
          ],
          "lat": 48.846329,
          "lon": -0.882884,
          "distance_to_route_km": 0.35,
          "cumulative_km": 530.466
        },
        {
          "nom": "Saint-Lô",
          "libellecourt": "SLO",
          "codes_uic": [
            "87447003"
          ],
          "lat": 49.116975,
          "lon": -1.099525,
          "distance_to_route_km": 0.003,
          "cumulative_km": 598.775
        },
        {
          "nom": "Lison",
          "libellecourt": "LSN",
          "codes_uic": [
            "87447219"
          ],
          "lat": 49.226834,
          "lon": -1.050339,
          "distance_to_route_km": 2.67,
          "cumulative_km": 616.575
        },
        {
          "nom": "Carentan",
          "libellecourt": "CAR",
          "codes_uic": [
            "87447243"
          ],
          "lat": 49.302482,
          "lon": -1.244938,
          "distance_to_route_km": 0.022,
          "cumulative_km": 640.451
        },
        {
          "nom": "Cherbourg-en-Cotentin",
          "libellecourt": "CBU",
          "codes_uic": [
            "87444877"
          ],
          "lat": 49.633505,
          "lon": -1.621515,
          "distance_to_route_km": 1.113,
          "cumulative_km": 725.51
        },
        {
          "nom": "Dives-sur-Mer - Cabourg",
          "libellecourt": "DVQ",
          "codes_uic": [
            "87444414"
          ],
          "lat": 49.2864776,
          "lon": -0.1074996,
          "distance_to_route_km": 0.105,
          "cumulative_km": 975.616
        },
        {
          "nom": "Dives-sur-Mer Port Guillaume",
          "libellecourt": "DSU",
          "codes_uic": [
            "87337378"
          ],
          "lat": 49.2910882,
          "lon": -0.1008455,
          "distance_to_route_km": 0.012,
          "cumulative_km": 976.367
        },
        {
          "nom": "Houlgate",
          "libellecourt": "HOE",
          "codes_uic": [
            "87444406"
          ],
          "lat": 49.3000711,
          "lon": -0.0772276,
          "distance_to_route_km": 0.059,
          "cumulative_km": 978.529
        },
        {
          "nom": "Villers-sur-Mer",
          "libellecourt": "VIU",
          "codes_uic": [
            "87444398"
          ],
          "lat": 49.3159865,
          "lon": 0.0099283,
          "distance_to_route_km": 0.405,
          "cumulative_km": 988.386
        },
        {
          "nom": "Blonville-sur-Mer - Benerville",
          "libellecourt": "BWB",
          "codes_uic": [
            "87444380"
          ],
          "lat": 49.3313919,
          "lon": 0.0356856,
          "distance_to_route_km": 0.058,
          "cumulative_km": 991.016
        },
        {
          "nom": "Trouville - Deauville",
          "libellecourt": "TDE",
          "codes_uic": [
            "87444372"
          ],
          "lat": 49.360005,
          "lon": 0.084167,
          "distance_to_route_km": 0.461,
          "cumulative_km": 1004.203
        },
        {
          "nom": "Pont-l'Évêque",
          "libellecourt": "PVQ",
          "codes_uic": [
            "87444349"
          ],
          "lat": 49.2870379,
          "lon": 0.1921947,
          "distance_to_route_km": 0.208,
          "cumulative_km": 1024.154
        },
        {
          "nom": "Le Havre",
          "libellecourt": "LHA",
          "codes_uic": [
            "87413013"
          ],
          "lat": 49.492996,
          "lon": 0.125677,
          "distance_to_route_km": 0.129,
          "cumulative_km": 1065.463
        },
        {
          "nom": "Fécamp",
          "libellecourt": "FEC",
          "codes_uic": [
            "87413542"
          ],
          "lat": 49.759277,
          "lon": 0.375287,
          "distance_to_route_km": 0.173,
          "cumulative_km": 1129.404
        },
        {
          "nom": "Saint-Aubin-sur-Scie",
          "libellecourt": "SBE",
          "codes_uic": [
            "87415125"
          ],
          "lat": 49.8717479,
          "lon": 1.0666642,
          "distance_to_route_km": 4.388,
          "cumulative_km": 1206.393
        },
        {
          "nom": "Dieppe",
          "libellecourt": "DEV",
          "codes_uic": [
            "87415018"
          ],
          "lat": 49.921788,
          "lon": 1.081133,
          "distance_to_route_km": 0.511,
          "cumulative_km": 1209.131
        },
        {
          "nom": "Le Tréport - Mers-les-Bains",
          "libellecourt": "LTM",
          "codes_uic": [
            "87317529"
          ],
          "lat": 50.0628592,
          "lon": 1.3763738,
          "distance_to_route_km": 0.051,
          "cumulative_km": 1244.819
        },
        {
          "nom": "Eu",
          "libellecourt": "EUW",
          "codes_uic": [
            "87317537"
          ],
          "lat": 50.0541988,
          "lon": 1.416837,
          "distance_to_route_km": 2.422,
          "cumulative_km": 1247.545
        },
        {
          "nom": "Noyelles-sur-Mer",
          "libellecourt": "NOE",
          "codes_uic": [
            "87317396"
          ],
          "lat": 50.1875408,
          "lon": 1.7045772,
          "distance_to_route_km": 0.377,
          "cumulative_km": 1288.941
        },
        {
          "nom": "Rue",
          "libellecourt": "RUE",
          "codes_uic": [
            "87317404"
          ],
          "lat": 50.27308,
          "lon": 1.6757,
          "distance_to_route_km": 4.085,
          "cumulative_km": 1301.059
        },
        {
          "nom": "Rang-du-Fliers - Verton - Berck",
          "libellecourt": "RDF",
          "codes_uic": [
            "87317057"
          ],
          "lat": 50.41579,
          "lon": 1.64805,
          "distance_to_route_km": 3.378,
          "cumulative_km": 1341.313
        },
        {
          "nom": "Étaples - Le Touquet",
          "libellecourt": "ETA",
          "codes_uic": [
            "87317065"
          ],
          "lat": 50.51686,
          "lon": 1.64231,
          "distance_to_route_km": 0.594,
          "cumulative_km": 1356.916
        },
        {
          "nom": "Dannes - Camiers",
          "libellecourt": "DCQ",
          "codes_uic": [
            "87317081"
          ],
          "lat": 50.5759062,
          "lon": 1.614825,
          "distance_to_route_km": 0.697,
          "cumulative_km": 1364.602
        },
        {
          "nom": "Neufchâtel-Hardelot",
          "libellecourt": "NHA",
          "codes_uic": [
            "87317099"
          ],
          "lat": 50.62364,
          "lon": 1.643115,
          "distance_to_route_km": 0.467,
          "cumulative_km": 1370.751
        },
        {
          "nom": "Hesdigneul-lès-Boulogne",
          "libellecourt": "HES",
          "codes_uic": [
            "87317107"
          ],
          "lat": 50.6609475,
          "lon": 1.6669967,
          "distance_to_route_km": 3.346,
          "cumulative_km": 1376.691
        },
        {
          "nom": "Pont de Briques",
          "libellecourt": "PRS",
          "codes_uic": [
            "87317115"
          ],
          "lat": 50.6828164,
          "lon": 1.6268038,
          "distance_to_route_km": 2.407,
          "cumulative_km": 1379.143
        },
        {
          "nom": "Boulogne-sur-Mer",
          "libellecourt": "BEM",
          "codes_uic": [
            "87317586"
          ],
          "lat": 50.7157,
          "lon": 1.60964,
          "distance_to_route_km": 0.812,
          "cumulative_km": 1387.949
        },
        {
          "nom": "Boulogne Tintelleries",
          "libellecourt": "BKI",
          "codes_uic": [
            "87317016"
          ],
          "lat": 50.72729,
          "lon": 1.60904,
          "distance_to_route_km": 0.614,
          "cumulative_km": 1388.279
        },
        {
          "nom": "Wimille - Wimereux",
          "libellecourt": "WWX",
          "codes_uic": [
            "87317123"
          ],
          "lat": 50.7638456,
          "lon": 1.6137455,
          "distance_to_route_km": 0.485,
          "cumulative_km": 1393.161
        },
        {
          "nom": "Pihen-lès-Guînes",
          "libellecourt": "PHV",
          "codes_uic": [
            "87316679"
          ],
          "lat": 50.8727855,
          "lon": 1.7845632,
          "distance_to_route_km": 4.241,
          "cumulative_km": 1422.191
        },
        {
          "nom": "Calais - Fréthun",
          "libellecourt": "FHS",
          "codes_uic": [
            "87281071"
          ],
          "lat": 50.901221,
          "lon": 1.810891,
          "distance_to_route_km": 4.603,
          "cumulative_km": 1425.59
        },
        {
          "nom": "Calais",
          "libellecourt": "CSV",
          "codes_uic": [
            "87317263"
          ],
          "lat": 50.953481,
          "lon": 1.850819,
          "distance_to_route_km": 0.029,
          "cumulative_km": 1439.215
        },
        {
          "nom": "Les Fontinettes",
          "libellecourt": "LTS",
          "codes_uic": [
            "87317305"
          ],
          "lat": 50.940831,
          "lon": 1.8496343,
          "distance_to_route_km": 1.278,
          "cumulative_km": 1440.369
        },
        {
          "nom": "Beau Marais",
          "libellecourt": "BMQ",
          "codes_uic": [
            "87317610"
          ],
          "lat": 50.945371,
          "lon": 1.8983301,
          "distance_to_route_km": 1.074,
          "cumulative_km": 1442.8
        },
        {
          "nom": "Gravelines",
          "libellecourt": "GVL",
          "codes_uic": [
            "87281246"
          ],
          "lat": 50.978736,
          "lon": 2.1232852,
          "distance_to_route_km": 0.241,
          "cumulative_km": 1466.486
        },
        {
          "nom": "Bourbourg",
          "libellecourt": "BBU",
          "codes_uic": [
            "87281279"
          ],
          "lat": 50.952267,
          "lon": 2.1942305,
          "distance_to_route_km": 0.413,
          "cumulative_km": 1474.555
        },
        {
          "nom": "Grande-Synthe",
          "libellecourt": "GSV",
          "codes_uic": [
            "87281311"
          ],
          "lat": 51.0026884,
          "lon": 2.3133547,
          "distance_to_route_km": 0.625,
          "cumulative_km": 1489.409
        },
        {
          "nom": "Dunkerque",
          "libellecourt": "DKQ",
          "codes_uic": [
            "87281006"
          ],
          "lat": 51.03047,
          "lon": 2.368961,
          "distance_to_route_km": 0.152,
          "cumulative_km": 1496.398
        },
        {
          "nom": "Coudekerque-Branche",
          "libellecourt": "CDK",
          "codes_uic": [
            "87281402"
          ],
          "lat": 51.0177069,
          "lon": 2.3751425,
          "distance_to_route_km": 0.266,
          "cumulative_km": 1498.093
        }
      ]
    },
    "EV5": {
      "route_id": "EV5",
      "name": "Eurovelo 5 Moselle Alsace",
      "total_km": 391.441,
      "stations": [
        {
          "nom": "Sarreguemines",
          "libellecourt": "SGS",
          "codes_uic": [
            "87193615"
          ],
          "lat": 49.1073357,
          "lon": 7.0686398,
          "distance_to_route_km": 0.242,
          "cumulative_km": 11.529
        },
        {
          "nom": "Kalhausen",
          "libellecourt": "KHS",
          "codes_uic": [
            "87193664"
          ],
          "lat": 49.0350585,
          "lon": 7.125352,
          "distance_to_route_km": 0.567,
          "cumulative_km": 26.597
        },
        {
          "nom": "Oermingen",
          "libellecourt": "OER",
          "codes_uic": [
            "87215632"
          ],
          "lat": 49.0003724,
          "lon": 7.1317322,
          "distance_to_route_km": 3.895,
          "cumulative_km": 29.237
        },
        {
          "nom": "Sarre-Union",
          "libellecourt": "SRU",
          "codes_uic": [
            "87215459"
          ],
          "lat": 48.9360172,
          "lon": 7.0850443,
          "distance_to_route_km": 3.749,
          "cumulative_km": 43.604
        },
        {
          "nom": "Sarrebourg",
          "libellecourt": "SBG",
          "codes_uic": [
            "87215012"
          ],
          "lat": 48.73808,
          "lon": 7.05285,
          "distance_to_route_km": 3.68,
          "cumulative_km": 91.974
        },
        {
          "nom": "Réding",
          "libellecourt": "RDG",
          "codes_uic": [
            "87215079"
          ],
          "lat": 48.7429595,
          "lon": 7.095885,
          "distance_to_route_km": 3.154,
          "cumulative_km": 96.645
        },
        {
          "nom": "Lutzelbourg",
          "libellecourt": "LZF",
          "codes_uic": [
            "87215160"
          ],
          "lat": 48.7299065,
          "lon": 7.2516808,
          "distance_to_route_km": 0.162,
          "cumulative_km": 108.913
        },
        {
          "nom": "Saverne",
          "libellecourt": "SNE",
          "codes_uic": [
            "87212225"
          ],
          "lat": 48.7444606,
          "lon": 7.3620802,
          "distance_to_route_km": 0.187,
          "cumulative_km": 119.799
        },
        {
          "nom": "Steinbourg",
          "libellecourt": "SNG",
          "codes_uic": [
            "87212209"
          ],
          "lat": 48.7635292,
          "lon": 7.416299,
          "distance_to_route_km": 0.091,
          "cumulative_km": 124.753
        },
        {
          "nom": "Dettwiller",
          "libellecourt": "DEE",
          "codes_uic": [
            "87212183"
          ],
          "lat": 48.7518969,
          "lon": 7.4652459,
          "distance_to_route_km": 0.454,
          "cumulative_km": 128.999
        },
        {
          "nom": "Wilwisheim",
          "libellecourt": "WIW",
          "codes_uic": [
            "87212175"
          ],
          "lat": 48.745831,
          "lon": 7.5077599,
          "distance_to_route_km": 0.39,
          "cumulative_km": 132.441
        },
        {
          "nom": "Hochfelden",
          "libellecourt": "HCH",
          "codes_uic": [
            "87212167"
          ],
          "lat": 48.7554199,
          "lon": 7.572355,
          "distance_to_route_km": 0.7,
          "cumulative_km": 137.694
        },
        {
          "nom": "Schwindratzheim",
          "libellecourt": "HWM",
          "codes_uic": [
            "87212159"
          ],
          "lat": 48.7536468,
          "lon": 7.6005468,
          "distance_to_route_km": 0.674,
          "cumulative_km": 139.471
        },
        {
          "nom": "Mommenheim",
          "libellecourt": "MOH",
          "codes_uic": [
            "87212142"
          ],
          "lat": 48.7561587,
          "lon": 7.6422273,
          "distance_to_route_km": 1.061,
          "cumulative_km": 142.178
        },
        {
          "nom": "Brumath",
          "libellecourt": "BAH",
          "codes_uic": [
            "87212134"
          ],
          "lat": 48.7331082,
          "lon": 7.7004016,
          "distance_to_route_km": 1.756,
          "cumulative_km": 147.0
        },
        {
          "nom": "Stephansfeld",
          "libellecourt": "SFX",
          "codes_uic": [
            "87212126"
          ],
          "lat": 48.7175872,
          "lon": 7.7045946,
          "distance_to_route_km": 1.093,
          "cumulative_km": 148.096
        },
        {
          "nom": "Vendenheim",
          "libellecourt": "VHM",
          "codes_uic": [
            "87212118"
          ],
          "lat": 48.6659659,
          "lon": 7.7177824,
          "distance_to_route_km": 0.247,
          "cumulative_km": 153.662
        },
        {
          "nom": "Mundolsheim",
          "libellecourt": "MUM",
          "codes_uic": [
            "87212100"
          ],
          "lat": 48.6447732,
          "lon": 7.721389,
          "distance_to_route_km": 1.348,
          "cumulative_km": 155.911
        },
        {
          "nom": "Hoenheim Tram",
          "libellecourt": "HMT",
          "codes_uic": [
            "87338517"
          ],
          "lat": 48.6285976,
          "lon": 7.7581387,
          "distance_to_route_km": 0.22,
          "cumulative_km": 158.774
        },
        {
          "nom": "Bischheim",
          "libellecourt": "BHM",
          "codes_uic": [
            "87212308"
          ],
          "lat": 48.6118352,
          "lon": 7.7422165,
          "distance_to_route_km": 1.469,
          "cumulative_km": 160.743
        },
        {
          "nom": "Krimmeri Meinau",
          "libellecourt": "KRI",
          "codes_uic": [
            "87338525"
          ],
          "lat": 48.56358,
          "lon": 7.75259,
          "distance_to_route_km": 1.221,
          "cumulative_km": 168.483
        },
        {
          "nom": "Strasbourg",
          "libellecourt": "STG",
          "codes_uic": [
            "87212027"
          ],
          "lat": 48.584967,
          "lon": 7.734584,
          "distance_to_route_km": 1.122,
          "cumulative_km": 169.587
        },
        {
          "nom": "Graffenstaden",
          "libellecourt": "GRF",
          "codes_uic": [
            "87212241"
          ],
          "lat": 48.5324375,
          "lon": 7.6897861,
          "distance_to_route_km": 4.47,
          "cumulative_km": 171.801
        },
        {
          "nom": "Strasbourg Roethig",
          "libellecourt": "SQG",
          "codes_uic": [
            "87212191"
          ],
          "lat": 48.5632897,
          "lon": 7.6950455,
          "distance_to_route_km": 1.123,
          "cumulative_km": 172.507
        },
        {
          "nom": "Lingolsheim",
          "libellecourt": "LGH",
          "codes_uic": [
            "87214502"
          ],
          "lat": 48.5594092,
          "lon": 7.6781143,
          "distance_to_route_km": 1.785,
          "cumulative_km": 173.916
        },
        {
          "nom": "Entzheim Aéroport",
          "libellecourt": "ENZ",
          "codes_uic": [
            "87214528"
          ],
          "lat": 48.54699,
          "lon": 7.62794,
          "distance_to_route_km": 1.299,
          "cumulative_km": 181.081
        },
        {
          "nom": "Duppigheim",
          "libellecourt": "DUP",
          "codes_uic": [
            "87214536"
          ],
          "lat": 48.5439674,
          "lon": 7.5868091,
          "distance_to_route_km": 1.096,
          "cumulative_km": 182.948
        },
        {
          "nom": "Duttlenheim",
          "libellecourt": "DTM",
          "codes_uic": [
            "87214544"
          ],
          "lat": 48.5453531,
          "lon": 7.5661529,
          "distance_to_route_km": 1.429,
          "cumulative_km": 184.808
        },
        {
          "nom": "Dachstein",
          "libellecourt": "DCN",
          "codes_uic": [
            "87214551"
          ],
          "lat": 48.5428546,
          "lon": 7.5330038,
          "distance_to_route_km": 2.02,
          "cumulative_km": 194.706
        },
        {
          "nom": "Molsheim",
          "libellecourt": "MOL",
          "codes_uic": [
            "87214577"
          ],
          "lat": 48.53705,
          "lon": 7.50044,
          "distance_to_route_km": 0.056,
          "cumulative_km": 195.444
        },
        {
          "nom": "Dorlisheim",
          "libellecourt": "DHM",
          "codes_uic": [
            "87214338"
          ],
          "lat": 48.5249915,
          "lon": 7.4930546,
          "distance_to_route_km": 0.148,
          "cumulative_km": 197.475
        },
        {
          "nom": "Mutzig",
          "libellecourt": "MTZ",
          "codes_uic": [
            "87214585"
          ],
          "lat": 48.5337753,
          "lon": 7.4621581,
          "distance_to_route_km": 1.751,
          "cumulative_km": 198.737
        },
        {
          "nom": "Gresswiller",
          "libellecourt": "GEI",
          "codes_uic": [
            "87214593"
          ],
          "lat": 48.53334,
          "lon": 7.42468,
          "distance_to_route_km": 4.087,
          "cumulative_km": 199.345
        },
        {
          "nom": "Rosheim",
          "libellecourt": "ROH",
          "codes_uic": [
            "87214320"
          ],
          "lat": 48.50525,
          "lon": 7.49093,
          "distance_to_route_km": 1.196,
          "cumulative_km": 202.588
        },
        {
          "nom": "Bischoffsheim",
          "libellecourt": "BFH",
          "codes_uic": [
            "87214296"
          ],
          "lat": 48.48701,
          "lon": 7.49772,
          "distance_to_route_km": 0.451,
          "cumulative_km": 204.442
        },
        {
          "nom": "Obernai",
          "libellecourt": "OBE",
          "codes_uic": [
            "87214288"
          ],
          "lat": 48.46219,
          "lon": 7.48881,
          "distance_to_route_km": 0.243,
          "cumulative_km": 207.496
        },
        {
          "nom": "Goxwiller",
          "libellecourt": "GXW",
          "codes_uic": [
            "87214270"
          ],
          "lat": 48.4327551,
          "lon": 7.4787296,
          "distance_to_route_km": 0.175,
          "cumulative_km": 213.541
        },
        {
          "nom": "Gertwiller",
          "libellecourt": "GWL",
          "codes_uic": [
            "87214254"
          ],
          "lat": 48.4133621,
          "lon": 7.4663166,
          "distance_to_route_km": 0.036,
          "cumulative_km": 216.129
        },
        {
          "nom": "Barr",
          "libellecourt": "BAR",
          "codes_uic": [
            "87214247"
          ],
          "lat": 48.4032933,
          "lon": 7.4565189,
          "distance_to_route_km": 0.508,
          "cumulative_km": 219.053
        },
        {
          "nom": "Eichhoffen",
          "libellecourt": "ECF",
          "codes_uic": [
            "87214239"
          ],
          "lat": 48.3824829,
          "lon": 7.4495524,
          "distance_to_route_km": 1.429,
          "cumulative_km": 220.094
        },
        {
          "nom": "Epfig",
          "libellecourt": "EFG",
          "codes_uic": [
            "87214221"
          ],
          "lat": 48.3637643,
          "lon": 7.4504053,
          "distance_to_route_km": 1.272,
          "cumulative_km": 226.876
        },
        {
          "nom": "Dambach-la-Ville",
          "libellecourt": "DMB",
          "codes_uic": [
            "87214213"
          ],
          "lat": 48.3216345,
          "lon": 7.4355565,
          "distance_to_route_km": 1.03,
          "cumulative_km": 232.502
        },
        {
          "nom": "Scherwiller",
          "libellecourt": "HWL",
          "codes_uic": [
            "87214205"
          ],
          "lat": 48.2869344,
          "lon": 7.4301867,
          "distance_to_route_km": 0.898,
          "cumulative_km": 237.083
        },
        {
          "nom": "Sélestat",
          "libellecourt": "STT",
          "codes_uic": [
            "87214056"
          ],
          "lat": 48.2601166,
          "lon": 7.443278,
          "distance_to_route_km": 2.759,
          "cumulative_km": 241.342
        },
        {
          "nom": "Colmar Saint-Joseph",
          "libellecourt": "CXJ",
          "codes_uic": [
            "87181222"
          ],
          "lat": 48.0816399,
          "lon": 7.3453397,
          "distance_to_route_km": 2.911,
          "cumulative_km": 263.847
        },
        {
          "nom": "Colmar Mésanges",
          "libellecourt": "CXM",
          "codes_uic": [
            "87402297"
          ],
          "lat": 48.0860048,
          "lon": 7.3336703,
          "distance_to_route_km": 1.957,
          "cumulative_km": 263.873
        },
        {
          "nom": "Logelbach",
          "libellecourt": "LOJ",
          "codes_uic": [
            "87182345"
          ],
          "lat": 48.087299,
          "lon": 7.3206082,
          "distance_to_route_km": 1.282,
          "cumulative_km": 264.276
        },
        {
          "nom": "Ingersheim - Cité Scolaire",
          "libellecourt": "ISC",
          "codes_uic": [
            "87303875"
          ],
          "lat": 48.08883,
          "lon": 7.29823,
          "distance_to_route_km": 0.345,
          "cumulative_km": 265.882
        },
        {
          "nom": "Turckheim",
          "libellecourt": "TKM",
          "codes_uic": [
            "87182352"
          ],
          "lat": 48.0856288,
          "lon": 7.279466,
          "distance_to_route_km": 0.045,
          "cumulative_km": 267.371
        },
        {
          "nom": "Saint-Gilles Lycée Haut-Rhin",
          "libellecourt": "GLL",
          "codes_uic": [
            "87181552"
          ],
          "lat": 48.0758611,
          "lon": 7.2609746,
          "distance_to_route_km": 1.768,
          "cumulative_km": 267.679
        },
        {
          "nom": "Walbach",
          "libellecourt": "WAH",
          "codes_uic": [
            "87182360"
          ],
          "lat": 48.0580062,
          "lon": 7.2334758,
          "distance_to_route_km": 4.58,
          "cumulative_km": 267.685
        },
        {
          "nom": "Colmar",
          "libellecourt": "CMR",
          "codes_uic": [
            "87182014"
          ],
          "lat": 48.073201,
          "lon": 7.346967,
          "distance_to_route_km": 3.208,
          "cumulative_km": 270.946
        },
        {
          "nom": "Herrlisheim-près-Colmar",
          "libellecourt": "HRH",
          "codes_uic": [
            "87182329"
          ],
          "lat": 48.0166417,
          "lon": 7.3206381,
          "distance_to_route_km": 0.771,
          "cumulative_km": 277.391
        },
        {
          "nom": "Rouffach",
          "libellecourt": "RAH",
          "codes_uic": [
            "87182337"
          ],
          "lat": 47.9602481,
          "lon": 7.312455,
          "distance_to_route_km": 0.805,
          "cumulative_km": 285.768
        },
        {
          "nom": "Merxheim",
          "libellecourt": "MXH",
          "codes_uic": [
            "87182725"
          ],
          "lat": 47.9126413,
          "lon": 7.3022795,
          "distance_to_route_km": 3.877,
          "cumulative_km": 297.131
        },
        {
          "nom": "Raedersheim",
          "libellecourt": "RHM",
          "codes_uic": [
            "87182717"
          ],
          "lat": 47.8869059,
          "lon": 7.2840467,
          "distance_to_route_km": 3.18,
          "cumulative_km": 299.118
        },
        {
          "nom": "Thann",
          "libellecourt": "THA",
          "codes_uic": [
            "87182568"
          ],
          "lat": 47.8088208,
          "lon": 7.1069795,
          "distance_to_route_km": 4.86,
          "cumulative_km": 317.92
        },
        {
          "nom": "Vieux-Thann",
          "libellecourt": "VXT",
          "codes_uic": [
            "87182550"
          ],
          "lat": 47.8058505,
          "lon": 7.1194904,
          "distance_to_route_km": 3.931,
          "cumulative_km": 317.92
        },
        {
          "nom": "Vieux-Thann Zone Industrielle",
          "libellecourt": "VXZ",
          "codes_uic": [
            "87181289"
          ],
          "lat": 47.8020615,
          "lon": 7.1326428,
          "distance_to_route_km": 2.997,
          "cumulative_km": 318.219
        },
        {
          "nom": "Cernay (Haut-Rhin)",
          "libellecourt": "CEF",
          "codes_uic": [
            "87182410"
          ],
          "lat": 47.802,
          "lon": 7.1737,
          "distance_to_route_km": 0.344,
          "cumulative_km": 318.446
        },
        {
          "nom": "Graffenwald",
          "libellecourt": "GFW",
          "codes_uic": [
            "87181131"
          ],
          "lat": 47.7808232,
          "lon": 7.2247908,
          "distance_to_route_km": 3.114,
          "cumulative_km": 320.876
        },
        {
          "nom": "Staffelfelden",
          "libellecourt": "TFE",
          "codes_uic": [
            "87182691"
          ],
          "lat": 47.8279612,
          "lon": 7.2651657,
          "distance_to_route_km": 0.053,
          "cumulative_km": 326.384
        },
        {
          "nom": "Bollwiller",
          "libellecourt": "BOW",
          "codes_uic": [
            "87182709"
          ],
          "lat": 47.8569694,
          "lon": 7.2672555,
          "distance_to_route_km": 2.035,
          "cumulative_km": 329.23
        },
        {
          "nom": "Mulhouse Dornach",
          "libellecourt": "MDQ",
          "codes_uic": [
            "87182055"
          ],
          "lat": 47.74713,
          "lon": 7.308477,
          "distance_to_route_km": 2.776,
          "cumulative_km": 351.16
        },
        {
          "nom": "Mulhouse Musées",
          "libellecourt": "MMU",
          "codes_uic": [
            "87534339"
          ],
          "lat": 47.75136,
          "lon": 7.29478,
          "distance_to_route_km": 3.561,
          "cumulative_km": 351.16
        },
        {
          "nom": "Mulhouse Zu Rhein Tram-Train",
          "libellecourt": "MZR",
          "codes_uic": [
            "87472639"
          ],
          "lat": 47.743561,
          "lon": 7.317015,
          "distance_to_route_km": 2.421,
          "cumulative_km": 351.773
        },
        {
          "nom": "Mulhouse",
          "libellecourt": "MSE",
          "codes_uic": [
            "87182063"
          ],
          "lat": 47.742224,
          "lon": 7.342396,
          "distance_to_route_km": 1.22,
          "cumulative_km": 351.997
        },
        {
          "nom": "Rixheim",
          "libellecourt": "RHE",
          "codes_uic": [
            "87182071"
          ],
          "lat": 47.74896,
          "lon": 7.406404,
          "distance_to_route_km": 0.156,
          "cumulative_km": 357.617
        },
        {
          "nom": "Habsheim",
          "libellecourt": "HAB",
          "codes_uic": [
            "87182089"
          ],
          "lat": 47.737691,
          "lon": 7.417979,
          "distance_to_route_km": 0.033,
          "cumulative_km": 359.224
        },
        {
          "nom": "Sierentz",
          "libellecourt": "SEZ",
          "codes_uic": [
            "87182105"
          ],
          "lat": 47.656047,
          "lon": 7.459142,
          "distance_to_route_km": 0.386,
          "cumulative_km": 370.705
        },
        {
          "nom": "Bartenheim",
          "libellecourt": "BTK",
          "codes_uic": [
            "87182113"
          ],
          "lat": 47.6349313,
          "lon": 7.4872561,
          "distance_to_route_km": 0.699,
          "cumulative_km": 373.921
        },