[
  {
    "osm_id": "node/1775840274",
    "type": null,
    "name": "Le Grand Pré",
    "website": null,
    "phone": null,
    "lat": 50.29312649938749,
    "lon": 4.1785449,
    "distance_to_route_km": 2.391
  },
  {
    "osm_id": "way/231244045",
    "type": null,
    "name": "Manon de la Source",
    "website": "http://www.manondelasource.be/",
    "phone": "+32 479 69 48 88",
    "lat": 50.305260624384886,
    "lon": 4.179274975,
    "distance_to_route_km": 1.1
  },
  {
    "osm_id": "node/2382092124",
    "type": null,
    "name": "Gîtes de France - n° 4078",
    "website": null,
    "phone": null,
    "lat": 50.2828356993897,
    "lon": 4.1736296,
    "distance_to_route_km": 3.385
  },
  {
    "osm_id": "way/1202264273",
    "type": null,
    "name": "Motorhome area of Erquelinnes",
    "website": "https://www.campingcarpark.com/fr_FR/camping-car/wallonie/hainaut/erquelinnes?areaType=aire-etape-camping-car",
    "phone": null,
    "lat": 50.30717709938447,
    "lon": 4.1196368375,
    "distance_to_route_km": 0.108
  },
  {
    "osm_id": "node/7105240834",
    "type": null,
    "name": "Le Château de Frankie",
    "website": null,
    "phone": null,
    "lat": 50.328196499379985,
    "lon": 4.0717599,
    "distance_to_route_km": 3.32
  },
  {
    "osm_id": "node/13327897014",
    "type": null,
    "name": "Aire de Camping Car et bivouac",
    "website": null,
    "phone": "+33 6 07 36 25 26",
    "lat": 50.293348599387436,
    "lon": 4.0759,
    "distance_to_route_km": 0.071
  },
  {
    "osm_id": "way/1010952091",
    "type": null,
    "name": "Aire de Boussois",
    "website": "https://www.tourisme-avesnois.com/preparer-son-sejour/ou-dormir/aire-de-camping-car/6057842_aire-de-boussois/",
    "phone": null,
    "lat": 50.28829061938852,
    "lon": 4.0455540800000005,
    "distance_to_route_km": 0.047
  },
  {
    "osm_id": "node/11056623655",
    "type": null,
    "name": "Rex Hôtel",
    "website": null,
    "phone": null,
    "lat": 50.275812999391206,
    "lon": 3.9729598,
    "distance_to_route_km": 0.064
  },
  {
    "osm_id": "way/52288202",
    "type": null,
    "name": "Campanile",
    "website": null,
    "phone": null,
    "lat": 50.282243766056496,
    "lon": 3.972315233333333,
    "distance_to_route_km": 0.629
  },
  {
    "osm_id": "node/11043895503",
    "type": null,
    "name": "Best Western",
    "website": null,
    "phone": null,
    "lat": 50.281629899389955,
    "lon": 3.9564361,
    "distance_to_route_km": 1.044
  },
  {
    "osm_id": "node/11124634716",
    "type": null,
    "name": "Le Carillon d'Or",
    "website": null,
    "phone": null,
    "lat": 50.281818399389905,
    "lon": 3.9369159,
    "distance_to_route_km": 2.336
  },
  {
    "osm_id": "node/1465943979",
    "type": null,
    "name": "Première Classe",
    "website": null,
    "phone": null,
    "lat": 50.28129489939002,
    "lon": 3.9063055,
    "distance_to_route_km": 4.462
  },
  {
    "osm_id": "way/1313129121",
    "type": null,
    "name": "Aire d'Hautmont",
    "website": "https://www.tourisme-avesnois.com/preparer-son-sejour/ou-dormir/aire-de-camping-car/6057850_aire-dhautmont/",
    "phone": null,
    "lat": 50.25046344225382,
    "lon": 3.912797128571429,
    "distance_to_route_km": 4.706
  },
  {
    "osm_id": "node/1465944002",
    "type": null,
    "name": "Formule 1",
    "website": null,
    "phone": null,
    "lat": 50.26842459939281,
    "lon": 3.9659154,
    "distance_to_route_km": 0.577
  },
  {
    "osm_id": "node/663849523",
    "type": null,
    "name": "B&B Hotel Maubeuge",
    "website": null,
    "phone": null,
    "lat": 50.273069399391794,
    "lon": 3.9686809,
    "distance_to_route_km": 0.025
  },
  {
    "osm_id": "node/664153580",
    "type": null,
    "name": "Le Grand hôtel",
    "website": "http://grand-hotel-maubeuge.fr",
    "phone": null,
    "lat": 50.27312189939179,
    "lon": 3.9722842,
    "distance_to_route_km": 0.035
  },
  {
    "osm_id": "node/1465943964",
    "type": null,
    "name": "B&b Hôtel Maubeuge Louvroil",
    "website": null,
    "phone": null,
    "lat": 50.251641799396424,
    "lon": 3.942099,
    "distance_to_route_km": 2.906
  },
  {
    "osm_id": "way/68414374",
    "type": null,
    "name": "Relais Eco-Vélo",
    "website": "https://www.relais-eco-velo.fr/",
    "phone": "+33 3 27 66 90 65",
    "lat": 50.255614168626344,
    "lon": 3.9995194384615393,
    "distance_to_route_km": 0.038
  },
  {
    "osm_id": "way/1313203498",
    "type": null,
    "name": "La petite ferme de Ropsies",
    "website": "https://www.tourisme-avesnois.com/preparer-son-sejour/ou-dormir/aire-de-camping-car/6057844_aire-de-camping-cars-a-la-ferme/",
    "phone": null,
    "lat": 50.214783879404436,
    "lon": 3.9836083800000006,
    "distance_to_route_km": 2.495
  },
  {
    "osm_id": "way/1061813985",
    "type": null,
    "name": "Aire de Camping-Car de Solre-le-Château",
    "website": "https://www.tourisme-avesnois.com/preparer-son-sejour/ou-dormir/aire-de-camping-car/6057843_aire-de-camping-car-de-solre-le-chateau/",
    "phone": null,
    "lat": 50.17840802668514,
    "lon": 4.0892881090909095,
    "distance_to_route_km": 0.719
  },
  {
    "osm_id": "way/71326267",
    "type": null,
    "name": "Camping Natura les Prés du Sart",
    "website": "https://camping-natura.e-monsite.com/",
    "phone": "+33 3 27 60 51 77",
    "lat": 50.17518057441315,
    "lon": 4.1468320075,
    "distance_to_route_km": 4.733
  },
  {
    "osm_id": "way/84575902",
    "type": null,
    "name": "La Boissellerie",
    "website": "https://www.felleries.fr/le-camping",
    "phone": "+33 3 27 59 06 50; +33 6 83 80 87 29",
    "lat": 50.14216986192041,
    "lon": 4.0274523562499995,
    "distance_to_route_km": 2.802
  },
  {
    "osm_id": "way/1118626440",
    "type": null,
    "name": "Camping naturiste les trois vallons .",
    "website": null,
    "phone": null,
    "lat": 50.13127264942282,
    "lon": 4.1118088625,
    "distance_to_route_km": 3.243
  },
  {
    "osm_id": "way/38845575",
    "type": null,
    "name": "Camping au Bol d'Air",
    "website": null,
    "phone": "+33 4 79 36 81 59",
    "lat": 50.1206975301944,
    "lon": 3.9965972923076922,
    "distance_to_route_km": 4.967
  },
  {
    "osm_id": "node/462749260",
    "type": null,
    "name": null,
    "website": null,
    "phone": null,
    "lat": 50.11716559942595,
    "lon": 4.0824509,
    "distance_to_route_km": 0.771
  },
  {
    "osm_id": "way/82212202",
    "type": null,
    "name": "Camping du Val-Joly",
    "website": null,
    "phone": null,
    "lat": 50.12333976158675,
    "lon": 4.114349654054053,
    "distance_to_route_km": 3.144
  },
  {
    "osm_id": "way/82312751",
    "type": null,
    "name": null,
    "website": null,
    "phone": null,
    "lat": 50.123965843868895,
    "lon": 4.128729133333334,
    "distance_to_route_km": 4.147
  },
  {
    "osm_id": "way/82312946",
    "type": null,
    "name": null,
    "website": null,
    "phone": null,
    "lat": 50.124016863060795,
    "lon": 4.127887409090909,
    "distance_to_route_km": 4.09
  },
  {
    "osm_id": "way/82313001",
    "type": null,
    "name": null,
    "website": null,
    "phone": null,
    "lat": 50.12405722669715,
    "lon": 4.128319290909091,
    "distance_to_route_km": 4.121
  },
  {
    "osm_id": "way/82313063",
    "type": null,
    "name": null,
    "website": null,
    "phone": null,
    "lat": 50.12379448831338,
    "lon": 4.127541033333333,
    "distance_to_route_km": 4.06
  },
  {
    "osm_id": "way/82312838",
    "type": null,
    "name": null,
    "website": null,
    "phone": null,
    "lat": 50.123673227995944,
    "lon": 4.128342814285714,
    "distance_to_route_km": 4.112
  },
  {
    "osm_id": "way/82312849",
    "type": null,
    "name": null,
    "website": null,
    "phone": null,
    "lat": 50.123183463060975,
    "lon": 4.127343881818182,
    "distance_to_route_km": 4.029
  },
  {
    "osm_id": "way/82312862",
    "type": null,
    "name": null,
    "website": null,
    "phone": null,
    "lat": 50.12368711053563,
    "lon": 4.129992488888889,
    "distance_to_route_km": 4.226
  },
  {
    "osm_id": "way/82312910",
    "type": null,
    "name": null,
    "website": null,
    "phone": null,
    "lat": 50.12339122799601,
    "lon": 4.129298899999999,
    "distance_to_route_km": 4.17
  },
  {
    "osm_id": "way/82312940",
    "type": null,
    "name": null,
    "website": null,
    "phone": null,
    "lat": 50.123698843868944,
    "lon": 4.1296106111111115,
    "distance_to_route_km": 4.2
  },
  {
    "osm_id": "way/82312944",
    "type": null,
    "name": null,
    "website": null,
    "phone": null,
    "lat": 50.12336172799602,
    "lon": 4.128996157142857,
    "distance_to_route_km": 4.148
  },
  {
    "osm_id": "way/82312957",
    "type": null,
    "name": null,
    "website": null,
    "phone": null,
    "lat": 50.123608432757855,
    "lon": 4.130358522222222,
    "distance_to_route_km": 4.249
  },
  {
    "osm_id": "way/82312985",
    "type": null,
    "name": null,
    "website": null,
    "phone": null,
    "lat": 50.12360011053565,
    "lon": 4.128012666666667,
    "distance_to_route_km": 4.087
  },
  {
    "osm_id": "way/82312988",
    "type": null,
    "name": null,
    "website": null,
    "phone": null,
    "lat": 50.12350247215182,
    "lon": 4.12730239090909,
    "distance_to_route_km": 4.035
  },
  {
    "osm_id": "way/82313047",
    "type": null,
    "name": null,
    "website": null,
    "phone": null,
    "lat": 50.12336835942459,
    "lon": 4.1286331,
    "distance_to_route_km": 4.123
  },
  {
    "osm_id": "node/963068005",
    "type": null,
    "name": "Résidence de Tourisme",
    "website": null,
    "phone": null,
    "lat": 50.12289029942469,
    "lon": 4.131138,
    "distance_to_route_km": 4.283
  },
  {
    "osm_id": "way/347716585",
    "type": null,
    "name": "Les Hauts de ValJoly",
    "website": null,
    "phone": null,
    "lat": 50.1227948544247,
    "lon": 4.13020209,
    "distance_to_route_km": 4.216
  },
  {
    "osm_id": "way/82312730",
    "type": null,
    "name": null,
    "website": null,
    "phone": null,
    "lat": 50.1213669708536,
    "lon": 4.132845885714286,
    "distance_to_route_km": 4.367
  },
  {
    "osm_id": "way/82312731",
    "type": null,
    "name": null,
    "website": null,
    "phone": null,
    "lat": 50.1215314085159,
    "lon": 4.131568172727274,
    "distance_to_route_km": 4.281
  },
  {
    "osm_id": "way/82312735",
    "type": null,
    "name": null,
    "website": null,
    "phone": null,
    "lat": 50.12289129942468,
    "lon": 4.127586020000001,
    "distance_to_route_km": 4.038
  },
  {
    "osm_id": "way/82312739",
    "type": null,
    "name": null,
    "website": null,
    "phone": null,
    "lat": 50.12088553942513,
    "lon": 4.13230033,
    "distance_to_route_km": 4.318
  },
  {
    "osm_id": "way/82312766",
    "type": null,
    "name": null,
    "website": null,
    "phone": null,
    "lat": 50.12209659033396,
    "lon": 4.130491499999999,
    "distance_to_route_km": 4.219
  },
  {
    "osm_id": "way/82312780",
    "type": null,
    "name": null,
    "website": null,
    "phone": null,
    "lat": 50.122916085138975,
    "lon": 4.129511885714286,
    "distance_to_route_km": 4.171
  },
  {
    "osm_id": "way/82312787",
    "type": null,
    "name": null,
    "website": null,
    "phone": null,
    "lat": 50.1226266549803,
    "lon": 4.1280192444444435,
    "distance_to_route_km": 4.06
  },
  {
    "osm_id": "way/82312793",
    "type": null,
    "name": null,
    "website": null,
    "phone": null,
    "lat": 50.122148788313744,
    "lon": 4.133322377777778,
    "distance_to_route_km": 4.417
  },
  {
    "osm_id": "way/82312797",
    "type": null,
    "name": null,
    "website": null,
    "phone": null,
    "lat": 50.12210687215215,
    "lon": 4.128623036363636,
    "distance_to_route_km": 4.089
  },
  {
    "osm_id": "way/82312798",
    "type": null,
    "name": null,
    "website": null,
    "phone": null,
    "lat": 50.12250441942476,
    "lon": 4.1322014000000005,
    "distance_to_route_km": 4.348
  },
  {
    "osm_id": "way/82312802",
    "type": null,
    "name": null,
    "website": null,
    "phone": null,
    "lat": 50.12232694487936,
    "lon": 4.130124609090909,
    "distance_to_route_km": 4.199
  },
  {
    "osm_id": "way/82312803",
    "type": null,
    "name": null,
    "website": null,
    "phone": null,
    "lat": 50.122322621647044,
    "lon": 4.129305577777778,
    "distance_to_route_km": 4.142
  },
  {
    "osm_id": "way/82312811",
    "type": null,
    "name": null,
    "website": null,
    "phone": null,
    "lat": 50.12259779942475,
    "lon": 4.1304893,
    "distance_to_route_km": 4.231
  },
  {
    "osm_id": "way/82312813",
    "type": null,
    "name": null,
    "website": null,
    "phone": null,
    "lat": 50.121845319424914,
    "lon": 4.13105198,
    "distance_to_route_km": 4.252
  },
  {
    "osm_id": "way/82312814",
    "type": null,
    "name": null,
    "website": null,
    "phone": null,
    "lat": 50.1223789105359,
    "lon": 4.128535744444444,
    "distance_to_route_km": 4.09
  },
  {
    "osm_id": "way/82312821",
    "type": null,
    "name": null,
    "website": null,
    "phone": null,
    "lat": 50.122454543869225,
    "lon": 4.132975877777778,
    "distance_to_route_km": 4.4
  },
  {
    "osm_id": "way/82312823",
    "type": null,
    "name": null,
    "website": null,
    "phone": null,
    "lat": 50.12217091053596,
    "lon": 4.128321811111111,
    "distance_to_route_km": 4.07
  },
  {
    "osm_id": "way/82312833",
    "type": null,
    "name": null,
    "website": null,
    "phone": null,
    "lat": 50.121212635788694,
    "lon": 4.132166999999999,
    "distance_to_route_km": 4.316
  },
  {
    "osm_id": "way/82312837",
    "type": null,
    "name": null,
    "website": null,
    "phone": null,
    "lat": 50.12286594487924,
    "lon": 4.128955118181819,
    "distance_to_route_km": 4.132
  },
  {
    "osm_id": "way/82312843",
    "type": null,
    "name": null,
    "website": null,
    "phone": null,
    "lat": 50.12274830851563,
    "lon": 4.132987818181818,
    "distance_to_route_km": 4.408
  },
  {
    "osm_id": "way/82312848",
    "type": null,
    "name": null,
    "website": null,
    "phone": null,
    "lat": 50.1218925994249,
    "lon": 4.13289254,
    "distance_to_route_km": 4.381
  },
  {
    "osm_id": "way/82312852",
    "type": null,
    "name": null,
    "website": null,
    "phone": null,
    "lat": 50.12137078831392,
    "lon": 4.131846644444445,
    "distance_to_route_km": 4.297
  },
  {
    "osm_id": "way/82312855",
    "type": null,
    "name": null,
    "website": null,
    "phone": null,
    "lat": 50.12274893275805,
    "lon": 4.1324871000000005,
    "distance_to_route_km": 4.373
  },
  {
    "osm_id": "way/82312861",
    "type": null,
    "name": null,
    "website": null,
    "phone": null,
    "lat": 50.12217781942484,
    "lon": 4.1320903,
    "distance_to_route_km": 4.332
  },
  {
    "osm_id": "way/82312863",
    "type": null,
    "name": null,
    "website": null,
    "phone": null,
    "lat": 50.1222341721521,
    "lon": 4.13077559090909,
    "distance_to_route_km": 4.242
  },
  {
    "osm_id": "way/82312865",
    "type": null,
    "name": null,
    "website": null,
    "phone": null,
    "lat": 50.122049379424865,
    "lon": 4.12924645,
    "distance_to_route_km": 4.131
  },
  {
    "osm_id": "way/82312867",
    "type": null,
    "name": null,
    "website": null,
    "phone": null,
    "lat": 50.12240401053592,
    "lon": 4.13385361111111,
    "distance_to_route_km": 4.46
  },
  {
    "osm_id": "way/82312870",
    "type": null,
    "name": null,
    "website": null,
    "phone": null,
    "lat": 50.12242727942479,
    "lon": 4.12988114,
    "distance_to_route_km": 4.184
  },
  {
    "osm_id": "way/82312873",
    "type": null,
    "name": null,
    "website": null,
    "phone": null,
    "lat": 50.12296037720245,
    "lon": 4.128260111111111,
    "distance_to_route_km": 4.086
  },
  {
    "osm_id": "way/82312885",
    "type": null,
    "name": null,
    "website": null,
    "phone": null,
    "lat": 50.12198108831378,
    "lon": 4.133202744444444,
    "distance_to_route_km": 4.405
  },
  {
    "osm_id": "way/82312887",
    "type": null,
    "name": null,
    "website": null,
    "phone": null,
    "lat": 50.12166129033405,
    "lon": 4.131314472727274,
    "distance_to_route_km": 4.266
  },
  {
    "osm_id": "way/82312898",
    "type": null,
    "name": null,
    "website": null,
    "phone": null,
    "lat": 50.123400710535684,
    "lon": 4.131003955555555,
    "distance_to_route_km": 4.288
  },
  {
    "osm_id": "way/82312905",
    "type": null,
    "name": null,
    "website": null,
    "phone": null,
    "lat": 50.12242595498034,
    "lon": 4.1325697888888895,
    "distance_to_route_km": 4.371
  },
  {
    "osm_id": "way/82312908",
    "type": null,
    "name": null,
    "website": null,
    "phone": null,
    "lat": 50.123182454980174,
    "lon": 4.132043944444445,
    "distance_to_route_km": 4.354
  },
  {
    "osm_id": "way/82312909",
    "type": null,
    "name": null,
    "website": null,
    "phone": null,
    "lat": 50.121124572152354,
    "lon": 4.132459327272727,
    "distance_to_route_km": 4.334
  },
  {
    "osm_id": "way/82312917",
    "type": null,
    "name": null,
    "website": null,
    "phone": null,
    "lat": 50.12199779942488,
    "lon": 4.1338129,
    "distance_to_route_km": 4.448
  },
  {
    "osm_id": "way/82312928",
    "type": null,
    "name": null,
    "website": null,
    "phone": null,
    "lat": 50.1223147394248,
    "lon": 4.1317806,
    "distance_to_route_km": 4.314
  },
  {
    "osm_id": "way/82312932",
    "type": null,
    "name": null,
    "website": null,
    "phone": null,
    "lat": 50.12292731942468,
    "lon": 4.12859286,
    "distance_to_route_km": 4.108
  },
  {
    "osm_id": "way/82312936",
    "type": null,
    "name": null,
    "website": null,
    "phone": null,
    "lat": 50.12097243578876,
    "lon": 4.132028018181817,
    "distance_to_route_km": 4.301
  },
  {
    "osm_id": "way/82312945",
    "type": null,
    "name": null,
    "website": null,
    "phone": null,
    "lat": 50.12157363942498,
    "lon": 4.13334696,
    "distance_to_route_km": 4.406
  },
  {
    "osm_id": "way/82312955",
    "type": null,
    "name": null,
    "website": null,
    "phone": null,
    "lat": 50.12167807942496,
    "lon": 4.13057579,
    "distance_to_route_km": 4.215
  },
  {
    "osm_id": "way/82312958",
    "type": null,
    "name": null,
    "website": null,
    "phone": null,
    "lat": 50.12241904386924,
    "lon": 4.130399488888888,
    "distance_to_route_km": 4.22
  },
  {
    "osm_id": "way/82312962",
    "type": null,
    "name": null,
    "website": null,
    "phone": null,
    "lat": 50.12188468124309,
    "lon": 4.130504181818182,
    "distance_to_route_km": 4.215
  },
  {
    "osm_id": "way/82312966",
    "type": null,
    "name": null,
    "website": null,
    "phone": null,
    "lat": 50.12287347720246,
    "lon": 4.131897433333333,
    "distance_to_route_km": 4.336
  },
  {
    "osm_id": "way/82312976",
    "type": null,
    "name": null,
    "website": null,
    "phone": null,
    "lat": 50.12201775397034,
    "lon": 4.1308411000000005,
    "distance_to_route_km": 4.241
  },
  {
    "osm_id": "way/82312979",
    "type": null,
    "name": null,
    "website": null,
    "phone": null,
    "lat": 50.12208252164709,
    "lon": 4.132396155555556,
    "distance_to_route_km": 4.351
  },
  {
    "osm_id": "way/82312982",
    "type": null,
    "name": null,
    "website": null,
    "phone": null,
    "lat": 50.1223016903339,
    "lon": 4.128922481818182,
    "distance_to_route_km": 4.115
  },
  {
    "osm_id": "way/82312983",
    "type": null,
    "name": null,
    "website": null,
    "phone": null,
    "lat": 50.123153099424634,
    "lon": 4.129997171428571,
    "distance_to_route_km": 4.211
  },
  {
    "osm_id": "way/82312984",
    "type": null,
    "name": null,
    "website": null,
    "phone": null,
    "lat": 50.12286745397014,
    "lon": 4.132745418181818,
    "distance_to_route_km": 4.394
  },
  {
    "osm_id": "way/82313013",
    "type": null,
    "name": null,
    "website": null,
    "phone": null,
    "lat": 50.12310184386908,
    "lon": 4.1306240333333335,
    "distance_to_route_km": 4.253
  },
  {
    "osm_id": "way/82313017",
    "type": null,
    "name": null,
    "website": null,
    "phone": null,
    "lat": 50.123000921646884,
    "lon": 4.129790044444444,
    "distance_to_route_km": 4.193
  },
  {
    "osm_id": "way/82313019",
    "type": null,
    "name": null,
    "website": null,
    "phone": null,
    "lat": 50.12207075498041,
    "lon": 4.1289338,
    "distance_to_route_km": 4.11
  },
  {
    "osm_id": "way/82313021",
    "type": null,
    "name": null,
    "website": null,
    "phone": null,
    "lat": 50.122689581242916,
    "lon": 4.131543936363636,
    "distance_to_route_km": 4.306
  },
  {
    "osm_id": "way/82313039",
    "type": null,
    "name": null,
    "website": null,
    "phone": null,
    "lat": 50.122506429424774,
    "lon": 4.13021211,
    "distance_to_route_km": 4.209
  },
  {
    "osm_id": "node/4095899484",
    "type": null,
    "name": "AUBEPINE",
    "website": "https://www.maison-aubepine.fr/",
    "phone": "+33327662423",
    "lat": 50.09577569943073,
    "lon": 4.0121799,
    "distance_to_route_km": 3.523
  },
  {
    "osm_id": "way/88440780",
    "type": null,
    "name": "Hôtel des Verriers - Le Bol Vert",
    "website": "https://www.bolvert.com/hotel-des-verriers/",
    "phone": null,
    "lat": 50.05990599943877,
    "lon": 4.1032811,
    "distance_to_route_km": 1.102
  },
  {
    "osm_id": "node/4265007429",
    "type": null,
    "name": "La Providence",
    "website": null,
    "phone": null,
    "lat": 50.01488669944893,
    "lon": 4.0429498,
    "distance_to_route_km": 0.113
  },
  {
    "osm_id": "node/4265080561",
    "type": null,
    "name": null,
    "website": null,
    "phone": null,
    "lat": 50.006833199450746,
    "lon": 4.053112,
    "distance_to_route_km": 0.396
  },
  {
    "osm_id": "way/291306407",
    "type": null,
    "name": "Les Etangs des Moines",
    "website": "https://www.etangsdesmoines.fr/hebergements/campingcaravaning/",
    "phone": "+33 3 27 63 05 26",
    "lat": 50.0076271577839,
    "lon": 4.060698341666667,
    "distance_to_route_km": 0.116
  },
  {
    "osm_id": "way/93890128",
    "type": null,
    "name": "Ibis Fourmies",
    "website": null,
    "phone": null,
    "lat": 50.007913259450504,
    "lon": 4.06398276,
    "distance_to_route_km": 0.022
  },
  {
    "osm_id": "way/737713123",
    "type": null,
    "name": "Hututu",
    "website": null,
    "phone": null,
    "lat": 50.02656532087486,
    "lon": 4.133647214285714,
    "distance_to_route_km": 3.146
  },
  {
    "osm_id": "way/1061773050",
    "type": null,
    "name": "Aire de Camping-car Anor",
    "website": "https://www.anor.fr/camping.php",
    "phone": null,
    "lat": 49.99199428278745,
    "lon": 4.0961969499999995,
    "distance_to_route_km": 0.52
  },
  {
    "osm_id": "way/981930403",
    "type": null,
    "name": "Domaine de Blangy",
    "website": "https://www.domainedeblangy.com/",
    "phone": "+33 375 100 100",
    "lat": 49.943058291131955,
    "lon": 4.089898008333334,
    "distance_to_route_km": 0.534
  },
  {
    "osm_id": "node/4239499975",
    "type": null,
    "name": "La Bonne Etoile",
    "website": null,
    "phone": null,
    "lat": 49.925201099469376,
    "lon": 4.0772164,
    "distance_to_route_km": 0.124
  },
  {
    "osm_id": "node/4241586302",
    "type": null,
    "name": "Le Cheval Blanc",
    "website": null,
    "phone": null,
    "lat": 49.9177543994711,
    "lon": 4.0854773,
    "distance_to_route_km": 0.018
  },
  {
    "osm_id": "node/9065881427",
    "type": null,
    "name": null,
    "website": "https://www.gites-de-france.com/fr/hauts-de-france/aisne/chambres-dorigny-en-thierache-02g10232",
    "phone": null,
    "lat": 49.89021949947743,
    "lon": 4.0134388,
    "distance_to_route_km": 4.094
  },
  {
    "osm_id": "way/381572976",
    "type": null,
    "name": "Aux Fines Bulls",
    "website": null,
    "phone": "+33 6 60 69 63 57",
    "lat": 49.93914655502173,
    "lon": 4.050649666666668,
    "distance_to_route_km": 1.598
  },
  {
    "osm_id": "node/9544558734",
    "type": null,
    "name": "Cheval de Renfort",
    "website": null,
    "phone": null,
    "lat": 49.90978789947293,
    "lon": 4.0047195,
    "distance_to_route_km": 2.2
  },
  {
    "osm_id": "node/10812174504",
    "type": null,
    "name": "La Galopade",
    "website": "https://www.gites.fr/gites_gite-domaine-de-la-galopade_etreaupont_h5093151.htm",
    "phone": null,
    "lat": 49.90582259947382,
    "lon": 3.9679866,
    "distance_to_route_km": 1.891
  },
  {
    "osm_id": "node/11141711600",
    "type": null,
    "name": "Un air de campagne",
    "website": null,
    "phone": null,
    "lat": 49.913665899472036,
    "lon": 3.9338455,
    "distance_to_route_km": 0.102
  },
  {
    "osm_id": "way/177804599",
    "type": null,
    "name": "Le Val d'Oise",
    "website": "https://www.evasion-aisne.com/fr/Sejourner-dans-l-Aisne/Votre-hebergement/Camping-du-Val-d-Oise-ETREAUPONT",
    "phone": "+33 3 23 97 48 04",
    "lat": 49.907720887708685,
    "lon": 3.919201105882353,
    "distance_to_route_km": 0.111
  },
  {
    "osm_id": "node/9549633507",
    "type": null,
    "name": "Hôtel le clos du Montvinage",
    "website": "https://www.hotel-clos-du-montvinage.com/",
    "phone": null,
    "lat": 49.90562619947388,
    "lon": 3.9140523,
    "distance_to_route_km": 0.054
  },
  {
    "osm_id": "node/11141900003",
    "type": null,
    "name": "Gite La Tourelle",
    "website": "https://gite-la-tourelle.com/",
    "phone": null,
    "lat": 49.90746559947346,
    "lon": 3.8943935,
    "distance_to_route_km": 0.049
  },
  {
    "osm_id": "node/5648786822",
    "type": null,
    "name": "Le Bocage",
    "website": null,
    "phone": null,
    "lat": 49.910239399472836,
    "lon": 3.8920098,
    "distance_to_route_km": 0.306
  },
  {
    "osm_id": "node/11142071898",
    "type": null,
    "name": "L'Ermite, restaurant avec chambres",
    "website": "https://www.lermite.com/",
    "phone": null,
    "lat": 49.89884469947545,
    "lon": 3.822096,
    "distance_to_route_km": 0.41
  },
  {
    "osm_id": "node/11142161867",
    "type": null,
    "name": "Gite Les Pommes d'Or",
    "website": "https://www.tourisme-thierache.fr/fiche/detail/804/Sejourner~Hebergement~Gites-de-Groupes/Les-Pommes-d-Or",
    "phone": null,
    "lat": 49.90632989947372,
    "lon": 3.7824514,
    "distance_to_route_km": 0.013
  },
  {
    "osm_id": "way/191705878",
    "type": null,
    "name": "Le Lord Godet",
    "website": null,
    "phone": null,
    "lat": 49.942806166132,
    "lon": 3.762789944444444,
    "distance_to_route_km": 4.016
  },
  {
    "osm_id": "way/264390198",
    "type": null,
    "name": "Camping de la Vallée de l'Oise",
    "website": "https://campingguise.wixsite.com/camping-vallee-oise",
    "phone": "+33 6 74 08 50 54",
    "lat": 49.89627768280937,
    "lon": 3.634503916666666,
    "distance_to_route_km": 0.388
  },
  {
    "osm_id": "node/3935852470",
    "type": null,
    "name": "Hôtel de Guise",
    "website": null,
    "phone": null,
    "lat": 49.899249999475366,
    "lon": 3.6289067,
    "distance_to_route_km": 0.092
  },
  {
    "osm_id": "node/1171880014",
    "type": null,
    "name": "La Ferme de Jonquese",
    "website": null,
    "phone": null,
    "lat": 49.86747849948272,
    "lon": 3.5662647,
    "distance_to_route_km": 2.036
  },
  {
    "osm_id": "way/1421513003",
    "type": null,
    "name": "Aire naturelle de Camping de Ribemont",
    "website": null,
    "phone": null,
    "lat": 49.79827532092737,
    "lon": 3.4522250357142856,
    "distance_to_route_km": 0.479
  },
  {
    "osm_id": "node/5760476669",
    "type": null,
    "name": null,
    "website": null,
    "phone": null,
    "lat": 49.779694899503156,
    "lon": 3.4041533,
    "distance_to_route_km": 0.031
  },
  {
    "osm_id": "node/1259953078",
    "type": null,
    "name": "Auberge de Vendeuil",
    "website": null,
    "phone": "+33 3 23 07 54 54",
    "lat": 49.71874339951749,
    "lon": 3.3452093,
    "distance_to_route_km": 1.517
  },
  {
    "osm_id": "way/390236781",
    "type": null,
    "name": "Le Marais de la Fontaine",
    "website": "https://www.ville-lafere.fr/spip.php?article17",
    "phone": "+33 3 23 56 82 94",
    "lat": 49.66622909952993,
    "lon": 3.362339825,
    "distance_to_route_km": 0.701
  },
  {
    "osm_id": "way/808808073",
    "type": null,
    "name": "Aire de camping-cars Beautor",
    "website": null,
    "phone": null,
    "lat": 49.66074498842012,
    "lon": 3.3492665999999995,
    "distance_to_route_km": 0.075
  },
  {
    "osm_id": "node/7119128179",
    "type": null,
    "name": "Camping de la Frette",
    "website": "https://campinglafrette.tergnier.fr",
    "phone": null,
    "lat": 49.649622399533875,
    "lon": 3.3101785,
    "distance_to_route_km": 0.172
  },
  {
    "osm_id": "node/4197818336",
    "type": null,
    "name": "Le Paon",
    "website": null,
    "phone": null,
    "lat": 49.65740729953202,
    "lon": 3.3089428,
    "distance_to_route_km": 0.42
  },
  {
    "osm_id": "node/4199356999",
    "type": null,
    "name": "Hôtel des Voyageurs",
    "website": null,
    "phone": null,
    "lat": 49.6579086995319,
    "lon": 3.2979567,
    "distance_to_route_km": 0.302
  },
  {
    "osm_id": "node/9549627601",
    "type": null,
    "name": "Le Verger",
    "website": "https://www.gites-chauny.fr/",
    "phone": null,
    "lat": 49.629097899538756,
    "lon": 3.2460221,
    "distance_to_route_km": 0.837
  },
  {
    "osm_id": "way/200993536",
    "type": null,
    "name": "Auberge de Villequier",
    "website": null,
    "phone": null,
    "lat": 49.647958666200935,
    "lon": 3.2067208333333332,
    "distance_to_route_km": 4.256
  },
  {
    "osm_id": "node/1652958515",
    "type": null,
    "name": "Le Picardie",
    "website": null,
    "phone": null,
    "lat": 49.61681799954169,
    "lon": 3.2273673,
    "distance_to_route_km": 0.719
  },
  {
    "osm_id": "node/498382966",
    "type": null,
    "name": "Le Chateaubriand",
    "website": null,
    "phone": null,
    "lat": 49.61119629954304,
    "lon": 3.2227712,
    "distance_to_route_km": 0.427
  },
  {
    "osm_id": "way/552446894",
    "type": null,
    "name": "Camping L'Étang Du Moulin",
    "website": null,
    "phone": "+33 3 44 43 06 78",
    "lat": 49.58863948954842,
    "lon": 3.0441237400000003,
    "distance_to_route_km": 2.147
  },
  {
    "osm_id": "node/5325561781",
    "type": null,
    "name": null,
    "website": null,
    "phone": null,
    "lat": 49.53167649956213,
    "lon": 3.0873304,
    "distance_to_route_km": 4.837
  },
  {
    "osm_id": "node/4649507607",
    "type": null,
    "name": "Le gite des cosaques",
    "website": "https://giteducosaque.pagesperso-orange.fr/",
    "phone": null,
    "lat": 49.579574999550594,
    "lon": 3.0104794,
    "distance_to_route_km": 1.731
  },
  {
    "osm_id": "node/2650716095",
    "type": null,
    "name": "Hôtel Saint-Éloi",
    "website": null,
    "phone": null,
    "lat": 49.57850209955084,
    "lon": 3.0040787,
    "distance_to_route_km": 1.678
  },
  {
    "osm_id": "node/2659537786",
    "type": null,
    "name": "Hôtel du Cèdre",
    "website": null,
    "phone": null,
    "lat": 49.58146129955015,
    "lon": 2.999976,
    "distance_to_route_km": 2.028
  },
  {
    "osm_id": "way/139915734",
    "type": null,
    "name": "Ibis Budget",
    "website": null,
    "phone": null,
    "lat": 49.5705284281242,
    "lon": 2.9802967857142852,
    "distance_to_route_km": 1.147
  },
  {
    "osm_id": "node/4585976152",
    "type": null,
    "name": "Le Soleil et la Lune",
    "website": null,
    "phone": null,
    "lat": 49.556748599556066,
    "lon": 2.9944264,
    "distance_to_route_km": 0.154
  },
  {
    "osm_id": "way/981199337",
    "type": null,
    "name": null,
    "website": null,
    "phone": null,
    "lat": 49.53489929956134,
    "lon": 2.957423,
    "distance_to_route_km": 0.024
  },
  {
    "osm_id": "way/260801123",
    "type": null,
    "name": "Camping La Montagne",
    "website": "https://campinglamontagne.fr/",
    "phone": "+33 3 44 76 98 29",
    "lat": 49.543325660165365,
    "lon": 2.9482064787878786,
    "distance_to_route_km": 1.102
  },
  {
    "osm_id": "node/6559989587",
    "type": null,
    "name": "Le jardin de Morel",
    "website": "https://www.sejourner-en-picardie.com/le-jardin-morel/cannectancourt/hlopic0600006009",
    "phone": "+33 6 72 71 61 12",
    "lat": 49.55285619955701,
    "lon": 2.9071955,
    "distance_to_route_km": 4.013
  },
  {
    "osm_id": "node/6589012233",
    "type": null,
    "name": "Le moulin d'Orval",
    "website": null,
    "phone": null,
    "lat": 49.55357499955683,
    "lon": 2.9007158,
    "distance_to_route_km": 4.457
  },
  {
    "osm_id": "relation/9821835",
    "type": null,
    "name": "Le moulin d'Orval",
    "website": null,
    "phone": null,
    "lat": 49.55361525511238,
    "lon": 2.9006584111111113,
    "distance_to_route_km": 4.463
  },
  {
    "osm_id": "way/516656604",
    "type": null,
    "name": "Camping Les Araucarias",
    "website": null,
    "phone": "+33 3 44 75 27 39",
    "lat": 49.50802915411325,
    "lon": 3.017517454545455,
    "distance_to_route_km": 3.854
  },
  {
    "osm_id": "way/1109222531",
    "type": null,
    "name": "Le Refuge",
    "website": null,
    "phone": null,
    "lat": 49.48665811623963,
    "lon": 2.9416309833333334,
    "distance_to_route_km": 1.015
  },
  {
    "osm_id": "way/1109222667",
    "type": null,
    "name": "Opaline",
    "website": null,
    "phone": null,
    "lat": 49.48619131623973,
    "lon": 2.9413017499999996,
    "distance_to_route_km": 0.964
  },
  {
    "osm_id": "node/9025509237",
    "type": null,
    "name": "Coucoo La Réserve",
    "website": "https://www.cabanesdelareserve.com/",
    "phone": "+33 3 60 19 49 76",
    "lat": 49.48654379957299,
    "lon": 2.9392067,
    "distance_to_route_km": 1.01
  },
  {
    "osm_id": "way/1110209401",
    "type": null,
    "name": "Halte Sauvage",
    "website": null,
    "phone": null,
    "lat": 49.487243979572824,
    "lon": 2.9390005,
    "distance_to_route_km": 1.088
  },
  {
    "osm_id": "way/1110325242",
    "type": null,
    "name": "Douce Nuit",
    "website": null,
    "phone": null,
    "lat": 49.48450629957348,
    "lon": 2.9389556399999996,
    "distance_to_route_km": 0.784
  },
  {
    "osm_id": "way/1110316795",
    "type": null,
    "name": "Reflets Blues",
    "website": null,
    "phone": null,
    "lat": 49.48746043957278,
    "lon": 2.9386066399999997,
    "distance_to_route_km": 1.113
  },
  {
    "osm_id": "way/1110538093",
    "type": null,
    "name": "Grand Horizon",
    "website": null,
    "phone": null,
    "lat": 49.48422145957356,
    "lon": 2.93811326,
    "distance_to_route_km": 0.755
  },
  {
    "osm_id": "way/1109218648",
    "type": null,
    "name": "Echappée Belle",
    "website": null,
    "phone": null,
    "lat": 49.48732545957281,
    "lon": 2.9377012,
    "distance_to_route_km": 1.101
  },
  {
    "osm_id": "way/1110536744",
    "type": null,
    "name": "Au Fil de l’Eau",
    "website": null,
    "phone": null,
    "lat": 49.48663193957297,
    "lon": 2.93723648,
    "distance_to_route_km": 1.025
  },
  {
    "osm_id": "way/1110538092",
    "type": null,
    "name": "Ambre",
    "website": null,
    "phone": null,
    "lat": 49.48414739957359,
    "lon": 2.93698578,
    "distance_to_route_km": 0.749
  },
  {
    "osm_id": "way/1110316796",
    "type": null,
    "name": "Ecrin de Jade",
    "website": null,
    "phone": null,
    "lat": 49.48660785957298,
    "lon": 2.9365912,
    "distance_to_route_km": 1.024
  },
  {
    "osm_id": "way/1110538091",
    "type": null,
    "name": "Colorado",
    "website": null,
    "phone": null,
    "lat": 49.48428137957355,
    "lon": 2.93606622,
    "distance_to_route_km": 0.767
  },
  {
    "osm_id": "way/1109218651",
    "type": null,
    "name": "Souffle d’Emeraude",
    "website": null,
    "phone": null,
    "lat": 49.48640947957303,
    "lon": 2.93589184,
    "distance_to_route_km": 1.004
  },
  {
    "osm_id": "way/1110317797",
    "type": null,
    "name": "Clair de Lune",
    "website": null,
    "phone": null,
    "lat": 49.484505059573486,
    "lon": 2.93576798,
    "distance_to_route_km": 0.792
  },
  {
    "osm_id": "node/12668200287",
    "type": null,
    "name": "Haut Perchoir",
    "website": null,
    "phone": null,
    "lat": 49.48255289957395,
    "lon": 2.9351548,
    "distance_to_route_km": 0.577
  },
  {
    "osm_id": "node/12668256080",
    "type": null,
    "name": "Terre-et-ciel",
    "website": null,
    "phone": null,
    "lat": 49.48198149957408,
    "lon": 2.9349684,
    "distance_to_route_km": 0.514
  },
  {
    "osm_id": "way/1109220997",
    "type": null,
    "name": "Beau Rivage",
    "website": null,
    "phone": null,
    "lat": 49.48571756068431,
    "lon": 2.934830088888889,
    "distance_to_route_km": 0.93
  },
  {
    "osm_id": "way/1110538088",
    "type": null,
    "name": "Terra Cotta",
    "website": null,
    "phone": null,
    "lat": 49.48491145957339,
    "lon": 2.9348458600000003,
    "distance_to_route_km": 0.84
  },
  {
    "osm_id": "node/12668256009",
    "type": null,
    "name": "Belle Forêt",
    "website": null,
    "phone": null,
    "lat": 49.48145009957422,
    "lon": 2.9347274,
    "distance_to_route_km": 0.456
  },
  {
    "osm_id": "node/12668256012",
    "type": null,
    "name": "Havre de Paix",
    "website": null,
    "phone": null,
    "lat": 49.48220729957405,
    "lon": 2.9347067,
    "distance_to_route_km": 0.54
  },
  {
    "osm_id": "way/1110538090",
    "type": null,
    "name": "Amarante",
    "website": null,
    "phone": null,
    "lat": 49.485251319573294,
    "lon": 2.9343255,
    "distance_to_route_km": 0.879
  },
  {
    "osm_id": "way/1110538089",
    "type": null,
    "name": "Indigo",
    "website": null,
    "phone": null,
    "lat": 49.48492839957338,
    "lon": 2.9342119,
    "distance_to_route_km": 0.844
  },
  {
    "osm_id": "way/1110317796",
    "type": null,
    "name": "Cahutte",
    "website": null,
    "phone": null,
    "lat": 49.485767439573166,
    "lon": 2.9339036,
    "distance_to_route_km": 0.938
  },
  {
    "osm_id": "node/12668200299",
    "type": null,
    "name": "Repaire du Trappeur",
    "website": null,
    "phone": null,
    "lat": 49.48130069957424,
    "lon": 2.9336499,
    "distance_to_route_km": 0.442
  },
  {
    "osm_id": "way/1109763410",
    "type": null,
    "name": "École Buissonnière",
    "website": null,
    "phone": null,
    "lat": 49.48334185957376,
    "lon": 2.9335517599999994,
    "distance_to_route_km": 0.669
  },
  {
    "osm_id": "node/10159070928",
    "type": null,
    "name": "Septième Ciel",
    "website": null,
    "phone": null,
    "lat": 49.48292259957387,
    "lon": 2.9330847,
    "distance_to_route_km": 0.624
  },
  {
    "osm_id": "node/12668256041",
    "type": null,
    "name": "Temps Suspendu",
    "website": null,
    "phone": null,
    "lat": 49.48183469957414,
    "lon": 2.9327523,
    "distance_to_route_km": 0.503
  },
  {
    "osm_id": "node/10159070924",
    "type": null,
    "name": "Nid des Bois",
    "website": null,
    "phone": null,
    "lat": 49.48216139957405,
    "lon": 2.9327007,
    "distance_to_route_km": 0.539
  },
  {
    "osm_id": "node/1404444919",
    "type": null,
    "name": null,
    "website": null,
    "phone": null,
    "lat": 49.4955906995708,
    "lon": 2.8752772,
    "distance_to_route_km": 3.574
  },
  {
    "osm_id": "way/381456740",
    "type": null,
    "name": "Camping des Étangs",
    "website": "http://www.ceadp.com",
    "phone": "+33 1 48 62 75 03",
    "lat": 49.48797135474506,
    "lon": 2.906456037931035,
    "distance_to_route_km": 1.357
  },
  {
    "osm_id": "node/5316642752",
    "type": null,
    "name": "Hôtel 2 Vallées Thourotte",
    "website": null,
    "phone": null,
    "lat": 49.48401789957359,
    "lon": 2.8677594,
    "distance_to_route_km": 3.557
  },
  {
    "osm_id": "node/3940567957",
    "type": null,
    "name": "Villa du Châtelet",
    "website": null,
    "phone": null,
    "lat": 49.436811999585046,
    "lon": 2.8826934,
    "distance_to_route_km": 0.247
  },
  {
    "osm_id": "node/5432974535",
    "type": null,
    "name": "La Parenthèse du Rond Royal",
    "website": null,
    "phone": null,
    "lat": 49.41101929959128,
    "lon": 2.8369117,
    "distance_to_route_km": 1.338
  },
  {
    "osm_id": "way/138831351",
    "type": null,
    "name": "Résidence Hôtelière Poincaré",
    "website": "http://www.residence-hoteliere-compiegne.fr",
    "phone": "+33 3 44 90 90 66",
    "lat": 49.42317949614007,
    "lon": 2.822946875862069,
    "distance_to_route_km": 0.351
  },
  {
    "osm_id": "node/13700609626",
    "type": null,
    "name": "Hôtel du nord",
    "website": null,
    "phone": null,
    "lat": 49.42132189958879,
    "lon": 2.8238693,
    "distance_to_route_km": 0.145
  },
  {
    "osm_id": "way/138713049",
    "type": null,
    "name": "Ibis Budget",
    "website": "https://www.accorhotels.com/gb/hotel-2571-ibis-budget-compiegne-centre-ville/index.shtml",
    "phone": "+33 8 92 68 31 04",
    "lat": 49.41986435413462,
    "lon": 2.8252805727272725,
    "distance_to_route_km": 0.047
  },
  {
    "osm_id": "way/134451629",
    "type": null,
    "name": "Alfred Hôtels",
    "website": null,
    "phone": null,
    "lat": 49.419896621811354,
    "lon": 2.824939888888889,
    "distance_to_route_km": 0.031
  },
  {
    "osm_id": "node/1460251159",
    "type": null,
    "name": "Armor Hôtel",
    "website": null,
    "phone": null,
    "lat": 49.41935779958929,
    "lon": 2.82372,
    "distance_to_route_km": 0.026
  },
  {
    "osm_id": "node/1541452916",
    "type": null,
    "name": "Le Vega",
    "website": null,
    "phone": "+33 3 44 23 32 17",
    "lat": 49.41890119958937,
    "lon": 2.8240225,
    "distance_to_route_km": 0.081
  },
  {
    "osm_id": "way/134451676",
    "type": null,
    "name": "Hôtel du Harlay",
    "website": "https://www.hotel-compiegne.net/",
    "phone": null,
    "lat": 49.419271019589296,
    "lon": 2.8235326,
    "distance_to_route_km": 0.033
  },
  {
    "osm_id": "node/1514119827",
    "type": null,
    "name": "Hôtel de Flandre",
    "website": null,
    "phone": null,
    "lat": 49.420898199588876,
    "lon": 2.8231159,
    "distance_to_route_km": 0.136
  },
  {
    "osm_id": "node/9954193072",
    "type": null,
    "name": "Les Jardins Carnot",
    "website": "https://www.chambres-hotes.fr/chambres-hotes_les-jardins-carnot_compiegne_h3638882.htm",
    "phone": null,
    "lat": 49.409209399591745,
    "lon": 2.8292326,
    "distance_to_route_km": 1.182
  },
  {
    "osm_id": "node/6563836191",
    "type": null,
    "name": "Aiden by Best Western T'aim Hotel",
    "website": "https://www.bestwestern.fr/fr/hotel-Margny-Les-Compiegne-Aiden-by-Best-Western-a-T-aim-93857",
    "phone": null,
    "lat": 49.41762329958968,
    "lon": 2.816344,
    "distance_to_route_km": 0.132
  },
  {
    "osm_id": "node/5387441893",
    "type": null,
    "name": "Le Clos Florésine",
    "website": null,
    "phone": null,
    "lat": 49.4134182995907,
    "lon": 2.7975424,
    "distance_to_route_km": 0.308
  },
  {
    "osm_id": "node/10802667663",
    "type": null,
    "name": "Residence Internationale",
    "website": "https://ilc-locations-appartements-meubles.com",
    "phone": "+33 3 44 92 21 00",
    "lat": 49.39979439959402,
    "lon": 2.8042232,
    "distance_to_route_km": 0.717
  },
  {
    "osm_id": "node/8498261443",
    "type": null,
    "name": "Hostellerie du Royallieu",
    "website": null,
    "phone": "+33 3 44 20 10 24",
    "lat": 49.39696479959471,
    "lon": 2.8044038,
    "distance_to_route_km": 0.918
  },
  {
    "osm_id": "way/258572147",
    "type": null,
    "name": "Hôtel Campanile Compiegne",
    "website": null,
    "phone": null,
    "lat": 49.39716841864228,
    "lon": 2.8085326190476194,
    "distance_to_route_km": 1.136
  },
  {
    "osm_id": "way/138938821",
    "type": null,
    "name": "hotelF1",
    "website": "https://www.accorhotels.com/de/hotel-2423-formule-1-hotelf1-compiegne/index.shtml",
    "phone": null,
    "lat": 49.40979634125825,
    "lon": 2.7764341666666668,
    "distance_to_route_km": 1.527
  },
  {
    "osm_id": "node/2631246264",
    "type": null,
    "name": "Ibis",
    "website": "http://www.accorhotels.com/de/hotel-0691-ibis-compiegne/index.shtml#",
    "phone": null,
    "lat": 49.39655649959482,
    "lon": 2.7899269,
    "distance_to_route_km": 0.222
  },
  {
    "osm_id": "node/2586473923",
    "type": null,
    "name": "Hôtel Première Classe",
    "website": null,
    "phone": null,
    "lat": 49.408330599591956,
    "lon": 2.7731779,
    "distance_to_route_km": 1.547
  },
  {
    "osm_id": "node/2586473950",
    "type": null,
    "name": "Quick Palace",
    "website": null,
    "phone": null,
    "lat": 49.40888139959183,
    "lon": 2.7731958,
    "distance_to_route_km": 1.595
  },
  {
    "osm_id": "node/9549675053",
    "type": null,
    "name": "Ibis Styles Compiègne",
    "website": "https://all.accor.com/hotel/7011/index.fr.shtml",
    "phone": null,
    "lat": 49.4019874995935,
    "lon": 2.7754598,
    "distance_to_route_km": 0.924
  },
  {
    "osm_id": "node/2583924970",
    "type": null,
    "name": "Hôtel Kyriad Compiègne",
    "website": null,
    "phone": null,
    "lat": 49.38722979959708,
    "lon": 2.7848774,
    "distance_to_route_km": 0.291
  },
  {
    "osm_id": "way/228261305",
    "type": null,
    "name": "Hôtel Mercure Compiègne Sud",
    "website": null,
    "phone": null,
    "lat": 49.38020002944954,
    "lon": 2.7850676119402986,
    "distance_to_route_km": 0.532
  },
  {
    "osm_id": "node/7468497491",
    "type": null,
    "name": "Auberge de la Vielle Ferme",
    "website": null,
    "phone": null,
    "lat": 49.36496299960251,
    "lon": 2.7457714,
    "distance_to_route_km": 1.501
  },
  {
    "osm_id": "node/9431364423",
    "type": null,
    "name": "Le Chalet du Hibou",
    "website": "https://www.oisetourisme.com/hlopic000v507ckc/le-chalet-du-hibou/saint-sauveur",
    "phone": "+33 6 20 01 17 06",
    "lat": 49.31652739961433,
    "lon": 2.773868,
    "distance_to_route_km": 2.965
  },
  {
    "osm_id": "node/10697191312",
    "type": null,
    "name": "Aux Charmes de la Vallée",
    "website": "https://www.auxcharmesdelavallee.com/",
    "phone": "+33 6 78 07 26 16",
    "lat": 49.30544909961706,
    "lon": 2.7907819,
    "distance_to_route_km": 4.568
  },
  {
    "osm_id": "node/9486503132",
    "type": null,
    "name": "La Roche",
    "website": "https://www.laroche-saintines.com",
    "phone": "+33 7 84 42 15 76",
    "lat": 49.310823599615745,
    "lon": 2.7647733,
    "distance_to_route_km": 2.599
  },
  {
    "osm_id": "node/4996128290",
    "type": null,
    "name": "Hôtel d'Aramont",
    "website": "https://auberge-aramont.eatbu.com",
    "phone": "+33 3 44 40 63 29",
    "lat": 49.31002679961594,
    "lon": 2.727526,
    "distance_to_route_km": 0.221
  },
  {
    "osm_id": "node/8979932004",
    "type": null,
    "name": "Parking Pont-Sainte-Maxence",
    "website": null,
    "phone": null,
    "lat": 49.30267139961772,
    "lon": 2.6004404,
    "distance_to_route_km": 0.856
  },
  {
    "osm_id": "node/3237101992",
    "type": null,
    "name": "La Cour Lalouette",
    "website": "http://www.lacourlalouette.fr/",
    "phone": "+33 675911941",
    "lat": 49.22402539963703,
    "lon": 2.6371219,
    "distance_to_route_km": 2.031
  },
  {
    "osm_id": "node/3249365663",
    "type": null,
    "name": "Saint-Graal",
    "website": "https://www.saintgraal.fr/",
    "phone": "+33 3 44 25 34 03",
    "lat": 49.21776569963857,
    "lon": 2.6127004,
    "distance_to_route_km": 0.541
  },
  {
    "osm_id": "node/3249365664",
    "type": null,
    "name": "l'Aunette Cottage",
    "website": null,
    "phone": null,
    "lat": 49.21816599963845,
    "lon": 2.6125526,
    "distance_to_route_km": 0.497
  },
  {
    "osm_id": "node/5655893777",
    "type": null,
    "name": "Gîte rural, Gîte équestre, Brunehaut",
    "website": "https://www.legitebrunehaut.fr/",
    "phone": null,
    "lat": 49.224106499637,
    "lon": 2.6360703,
    "distance_to_route_km": 1.956
  },
  {
    "osm_id": "node/7944786805",
    "type": null,
    "name": "La bohème restaurant & chambres d'hôtes",
    "website": "https://labohemesenlis.fr/",
    "phone": "+33 3 44 56 63 99",
    "lat": 49.20533329964163,
    "lon": 2.5830416,
    "distance_to_route_km": 0.51
  },
  {
    "osm_id": "way/142256128",
    "type": null,
    "name": "Le Petit Bellon",
    "website": "https://www.petitbellon.com/",
    "phone": "+33 3 44 60 49 01",
    "lat": 49.205938332974796,
    "lon": 2.589140833333333,
    "distance_to_route_km": 0.098
  },
  {
    "osm_id": "node/4143137191",
    "type": null,
    "name": "Hostellerie de la Porte Bellon",
    "website": "https://www.portebellon.fr",
    "phone": "+33 3 44 53 03 05",
    "lat": 49.20513419964168,
    "lon": 2.5902342,
    "distance_to_route_km": 0.131
  },
  {
    "osm_id": "way/142255484",
    "type": null,
    "name": null,
    "website": null,
    "phone": null,
    "lat": 49.20687859964124,
    "lon": 2.5965347666666667,
    "distance_to_route_km": 0.256
  },
  {
    "osm_id": "way/142258534",
    "type": null,
    "name": "Campanile",
    "website": "https://www.campanile.com/fr-fr/",
    "phone": "+33 3 44 60 05 07",
    "lat": 49.20805469964094,
    "lon": 2.604699633333333,
    "distance_to_route_km": 0.733
  },
  {
    "osm_id": "way/142258167",
    "type": null,
    "name": "Ibis",
    "website": null,
    "phone": null,
    "lat": 49.20835896630755,
    "lon": 2.605042522222222,
    "distance_to_route_km": 0.773
  },
  {
    "osm_id": "way/795600052",
    "type": null,
    "name": "Ibis",
    "website": "https://all.accor.com/hotel/0709/index.fr.shtml",
    "phone": "+33 3 44 53 70 50",
    "lat": 49.20829484964089,
    "lon": 2.6057736625000003,
    "distance_to_route_km": 0.781
  },
  {
    "osm_id": "way/142250295",
    "type": null,
    "name": "Ibis Budget",
    "website": "https://all.accor.com/hotel/3180/index.fr.shtml",
    "phone": null,
    "lat": 49.20831689194858,
    "lon": 2.6064866000000007,
    "distance_to_route_km": 0.792
  },
  {
    "osm_id": "way/142250530",
    "type": null,
    "name": "Hôtel Escapade - Best Western Plus",
    "website": null,
    "phone": null,
    "lat": 49.21009481214044,
    "lon": 2.62239385,
    "distance_to_route_km": 1.147
  },
  {
    "osm_id": "node/1938481321",
    "type": null,
    "name": null,
    "website": null,
    "phone": null,
    "lat": 49.15296559965452,
    "lon": 2.5712122,
    "distance_to_route_km": 4.552
  },
  {
    "osm_id": "node/12090569189",
    "type": null,
    "name": "Maison prieuré",
    "website": "https://www.maisonprieure.com/",
    "phone": "+33 6 98 30 76 95",
    "lat": 49.18083899964765,
    "lon": 2.6673687,
    "distance_to_route_km": 2.819
  },
  {
    "osm_id": "way/198797141",
    "type": null,
    "name": "La Maison de Chaalis",
    "website": "https://www.lamaisondechaalis.com",
    "phone": "+33 6 09 18 03 87",
    "lat": 49.154651463290456,
    "lon": 2.674674581818181,
    "distance_to_route_km": 2.115
  },
  {
    "osm_id": "node/5655893776",
    "type": null,
    "name": "Les rêveries dans la théière",
    "website": null,
    "phone": null,
    "lat": 49.12523089966136,
    "lon": 2.6951432,
    "distance_to_route_km": 1.702
  },
  {
    "osm_id": "node/6025736117",
    "type": null,
    "name": "Domaine Château Ermenonville",
    "website": null,
    "phone": null,
    "lat": 49.12655549966103,
    "lon": 2.693257,
    "distance_to_route_km": 1.708
  },
  {
    "osm_id": "way/1292444274",
    "type": null,
    "name": "Aire de camping-cars Moussy Le Neuf",
    "website": "https://www.moussyleneuf.fr/aire-camping-car",
    "phone": "+33 6 04 52 23 33",
    "lat": 49.06805517967549,
    "lon": 2.59906594,
    "distance_to_route_km": 0.912
  },
  {
    "osm_id": "node/12917534049",
    "type": null,
    "name": "B&B Hotel",
    "website": "https://www.hotel-bb.com/fr/hotel/saint-witz-roissy",
    "phone": null,
    "lat": 49.088564399670425,
    "lon": 2.5568535,
    "distance_to_route_km": 4.716
  },
  {
    "osm_id": "way/409953051",
    "type": null,
    "name": "Première Classe Saint Witz",
    "website": null,
    "phone": null,
    "lat": 49.089070568901064,
    "lon": 2.5563734153846154,
    "distance_to_route_km": 4.779
  },
  {
    "osm_id": "way/80487830",
    "type": null,
    "name": "Fasthôtel Paris Nord - Saint Witz",
    "website": "https://www.fasthotel.com/hotels-pas-cher-region-parisienne/hotel-paris-saint-witz",
    "phone": "+33  1 34 31 19 84",
    "lat": 49.088055399670544,
    "lon": 2.55460648,
    "distance_to_route_km": 4.809
  },
  {
    "osm_id": "way/80487857",
    "type": null,
    "name": "Akena",
    "website": "https://www.hotels-akena.com/hotel/hotel-akena-saint-witz",
    "phone": "+33 1 34 31 20 60",
    "lat": 49.08902196633697,
    "lon": 2.5544618333333333,
    "distance_to_route_km": 4.883
  },
  {
    "osm_id": "way/80488510",
    "type": null,
    "name": "hotelF1",
    "website": "https://all.accor.com/lien_externe.svlt?goto=fiche_hotel&code_hotel=2278&merchantid=seo-maps-FR-2278&sourceid=aw-cen&utm_medium=seo+maps&utm_source=google+Maps&utm_campaign=seo+maps&y_source=1_MTUzNTk2NDgtNzE1LWxvY2F0aW9uLndlYnNpdGU%3D",
    "phone": "+33 8 91 70 53 87",
    "lat": 49.08927699967024,
    "lon": 2.553344646153846,
    "distance_to_route_km": 4.965
  },
  {
    "osm_id": "way/80488538",
    "type": null,
    "name": "B&B Hotel",
    "website": "https://www.hotel-bb.com/fr/-/hotelByName.htm?id=4340",
    "phone": null,
    "lat": 49.08870021271387,
    "lon": 2.5534037565217385,
    "distance_to_route_km": 4.922
  },
  {
    "osm_id": "way/80489252",
    "type": null,
    "name": "Hôtel GOLDEN TULIP ROISSY SAINT-WITZ",
    "website": null,
    "phone": null,
    "lat": 49.08974744367013,
    "lon": 2.5540631,
    "distance_to_route_km": 4.957
  },
  {
    "osm_id": "way/401466027",
    "type": null,
    "name": "Airport-Hôtel",
    "website": null,
    "phone": null,
    "lat": 49.03773082321241,
    "lon": 2.5816,
    "distance_to_route_km": 3.165
  },
  {
    "osm_id": "way/401466028",
    "type": null,
    "name": "Les herbes Folles",
    "website": "https://hotelherbesfolles.fr",
    "phone": null,
    "lat": 49.03342135262523,
    "lon": 2.5822074117647054,
    "distance_to_route_km": 3.425
  },
  {
    "osm_id": "node/356064537",
    "type": null,
    "name": "Geographotel Paris-Roissy CDG Airport",
    "website": "https://www.geographotel-roissy.com/",
    "phone": "+33 1 60 03 65 65",
    "lat": 49.020774599687186,
    "lon": 2.5904806,
    "distance_to_route_km": 3.745
  },
  {
    "osm_id": "way/325758802",
    "type": null,
    "name": "Campanile Roissy Le Mesnil-Amelot",
    "website": null,
    "phone": null,
    "lat": 49.01816675968784,
    "lon": 2.586520713333334,
    "distance_to_route_km": 4.154
  },
  {
    "osm_id": "way/677476435",
    "type": null,
    "name": "Première Classe Roissy Le Mesnil Amelot",
    "website": null,
    "phone": null,
    "lat": 49.01777379968792,
    "lon": 2.5867512952380953,
    "distance_to_route_km": 4.172
  },
  {
    "osm_id": "way/722868917",
    "type": null,
    "name": "Campanille",
    "website": null,
    "phone": null,
    "lat": 49.01795188150607,
    "lon": 2.5862587909090906,
    "distance_to_route_km": 4.184
  },
  {
    "osm_id": "way/269818545",
    "type": null,
    "name": "The Jangle",
    "website": "https://www.janglehotel.com/",
    "phone": "+33 1 60 03 63 00",
    "lat": 49.021926707943784,
    "lon": 2.5998206733944955,
    "distance_to_route_km": 3.153
  },
  {
    "osm_id": "way/1110636299",
    "type": null,
    "name": "Cottages de France Saint Mard",
    "website": "https://www.cottagesdefrance-cdg.fr/",
    "phone": "+33 1 60 97 97 85",
    "lat": 49.03973176634916,
    "lon": 2.688308393333334,
    "distance_to_route_km": 2.737
  },
  {
    "osm_id": "way/200533310",
    "type": null,
    "name": "Balladins",
    "website": null,
    "phone": null,
    "lat": 49.0386126080161,
    "lon": 2.686971475,
    "distance_to_route_km": 2.579
  },
  {
    "osm_id": "way/592114292",
    "type": null,
    "name": "Balladins",
    "website": null,
    "phone": null,
    "lat": 49.03871949968274,
    "lon": 2.687350552380952,
    "distance_to_route_km": 2.607
  },
  {
    "osm_id": "way/908861265",
    "type": null,
    "name": "Parc résidentiel de loisirs les Tulipiers",
    "website": null,
    "phone": null,
    "lat": 49.01127871080065,
    "lon": 2.662276922222222,
    "distance_to_route_km": 0.374
  },
  {
    "osm_id": "way/1411122633",
    "type": null,
    "name": "CAP WEST Résidences Compans",
    "website": "https://www.capwestresidence.fr/residence?cap-west=compans",
    "phone": "+33 1 88 20 20 88",
    "lat": 48.99214171844428,
    "lon": 2.65277706875,
    "distance_to_route_km": 0.917
  },
  {
    "osm_id": "way/155552027",
    "type": null,
    "name": "Le Manoir de Gressy",
    "website": null,
    "phone": null,
    "lat": 48.964995764701,
    "lon": 2.673667565,
    "distance_to_route_km": 0.054
  },
  {
    "osm_id": "node/2136525097",
    "type": null,
    "name": "Crystal Hôtel",
    "website": null,
    "phone": null,
    "lat": 48.95355609970384,
    "lon": 2.666561,
    "distance_to_route_km": 0.326
  },
  {
    "osm_id": "node/2136525135",
    "type": null,
    "name": "Fasthôtel",
    "website": "https://www.fasthotel.com/hotels-pas-cher-region-parisienne/hotel-roissy-claye-souilly",
    "phone": null,
    "lat": 48.95383749970376,
    "lon": 2.6670197,
    "distance_to_route_km": 0.307
  },
  {
    "osm_id": "node/2138957982",
    "type": null,
    "name": "Le Relais du Parisis",
    "website": "https://www.lerelaisduparisis.com/",
    "phone": "+33 9 70 35 29 57",
    "lat": 48.948906799705,
    "lon": 2.6250915,
    "distance_to_route_km": 0.482
  },
  {
    "osm_id": "node/2138957959",
    "type": null,
    "name": "Formule 1",
    "website": null,
    "phone": null,
    "lat": 48.95108419970444,
    "lon": 2.6210195,
    "distance_to_route_km": 0.21
  },
  {
    "osm_id": "node/3414727807",
    "type": null,
    "name": "Hôtel Acadie",
    "website": null,
    "phone": null,
    "lat": 48.96511209970097,
    "lon": 2.5628458,
    "distance_to_route_km": 2.409
  },
  {
    "osm_id": "node/4358550990",
    "type": null,
    "name": "Campanile",
    "website": null,
    "phone": null,
    "lat": 48.96101429970201,
    "lon": 2.5530935,
    "distance_to_route_km": 2.227
  },
  {
    "osm_id": "node/472017014",
    "type": null,
    "name": "Campanile",
    "website": null,
    "phone": null,
    "lat": 48.96112779970197,
    "lon": 2.553065,
    "distance_to_route_km": 2.239
  },
  {
    "osm_id": "node/472017254",
    "type": null,
    "name": "Premier Classe",
    "website": null,
    "phone": null,
    "lat": 48.961044699701986,
    "lon": 2.5538021,
    "distance_to_route_km": 2.205
  },
  {
    "osm_id": "way/146518429",
    "type": null,
    "name": "B&B HOTEL Paris Nord Villepinte",
    "website": "https://www.hotel-bb.com/fr/hotel/paris-nord-villepinte",
    "phone": "+33 8 92 70 75 58",
    "lat": 48.96295066636817,
    "lon": 2.5534572703703704,
    "distance_to_route_km": 2.404
  },
  {
    "osm_id": "node/3238927872",
    "type": null,
    "name": "Hôtel Le Vert-Galnt",
    "website": null,
    "phone": null,
    "lat": 48.94520999970592,
    "lon": 2.5656388,
    "distance_to_route_km": 0.252
  },
  {
    "osm_id": "node/3512324893",
    "type": null,
    "name": "B&B Hôtel",
    "website": "https://www.hotel-bb.com/fr/-/hotelByName.htm?id=0563",
    "phone": null,
    "lat": 48.95991369970228,
    "lon": 2.5529942,
    "distance_to_route_km": 2.123
  },
  {
    "osm_id": "node/3953839951",
    "type": null,
    "name": null,
    "website": null,
    "phone": null,
    "lat": 48.934033499708676,
    "lon": 2.5623877,
    "distance_to_route_km": 0.76
  },
  {
    "osm_id": "node/1347794242",
    "type": null,
    "name": "Campanile",
    "website": "http://www.campanile-livry-gargan.fr",
    "phone": null,
    "lat": 48.93218879970914,
    "lon": 2.5577298,
    "distance_to_route_km": 0.83
  },
  {
    "osm_id": "way/140912726",
    "type": null,
    "name": "Green Hotels Roissy Parc des Expositions Villepinte",
    "website": null,
    "phone": "+331 48 63 80 85",
    "lat": 48.977102355698,
    "lon": 2.511127252,
    "distance_to_route_km": 4.986
  },
  {
    "osm_id": "way/146516580",
    "type": null,
    "name": "Hôtel F1 Villepinte",
    "website": null,
    "phone": null,
    "lat": 48.966717153546725,
    "lon": 2.516293823076923,
    "distance_to_route_km": 3.778
  },
  {
    "osm_id": "way/146518940",
    "type": null,
    "name": "Hôtel Ibis Villepinte Parc Expos",
    "website": null,
    "phone": null,
    "lat": 48.96653777864799,
    "lon": 2.517021655263158,
    "distance_to_route_km": 3.738
  },
  {
    "osm_id": "way/146527056",
    "type": null,
    "name": "Ibis Styles Parc des Expositions de Villepinte",
    "website": null,
    "phone": "+33148632610",
    "lat": 48.97236268303251,
    "lon": 2.5129227166666666,
    "distance_to_route_km": 4.451
  },
  {
    "osm_id": "node/4177328601",
    "type": null,
    "name": null,
    "website": null,
    "phone": null,
    "lat": 48.97281989969907,
    "lon": 2.5118129,
    "distance_to_route_km": 4.528
  },
  {
    "osm_id": "node/4177328602",
    "type": null,
    "name": null,
    "website": null,
    "phone": null,
    "lat": 48.97317669969899,
    "lon": 2.5112242,
    "distance_to_route_km": 4.578
  },
  {
    "osm_id": "node/11223037838",
    "type": null,
    "name": null,
    "website": null,
    "phone": null,
    "lat": 48.954993599703485,
    "lon": 2.4978005,
    "distance_to_route_km": 3.125
  },
  {
    "osm_id": "way/136810641",
    "type": null,
    "name": "Novotel Paris Nord Expo",
    "website": null,
    "phone": null,
    "lat": 48.953000999703974,
    "lon": 2.4855605625000003,
    "distance_to_route_km": 3.533
  },
  {
    "osm_id": "way/136810690",
    "type": null,
    "name": "Ibis Aulnay Paris Nord Expo",
    "website": null,
    "phone": null,
    "lat": 48.952582590613176,
    "lon": 2.485962454545455,
    "distance_to_route_km": 3.479
  },
  {
    "osm_id": "way/136810691",
    "type": null,
    "name": "B&B HOTEL Paris Nord Aulnay-sous-Bois",
    "website": "https://www.hotel-bb.com/fr/hotel/paris-nord-aulnay-sous-bois",
    "phone": "+33 8 92 70 75 93",
    "lat": 48.95432356492105,
    "lon": 2.483318652173913,
    "distance_to_route_km": 3.753
  },
  {
    "osm_id": "way/785625508",
    "type": null,
    "name": "Campanile Le Blanc-Mesnil",
    "website": null,
    "phone": null,
    "lat": 48.95071669256168,
    "lon": 2.466361457142857,
    "distance_to_route_km": 4.483
  },
  {
    "osm_id": "way/785625509",
    "type": null,
    "name": "Kyriad Le Blanc-Mesnil",
    "website": null,
    "phone": null,
    "lat": 48.95049346637126,
    "lon": 2.466155483333333,
    "distance_to_route_km": 4.481
  },
  {
    "osm_id": "way/84282727",
    "type": null,
    "name": "Première Classe Le Blanc-Mesnil",
    "website": null,
    "phone": null,
    "lat": 48.951129779704445,
    "lon": 2.4667244000000004,
    "distance_to_route_km": 4.49
  },
  {
    "osm_id": "way/84297398",
    "type": null,
    "name": "hotelF1",
    "website": null,
    "phone": null,
    "lat": 48.94576287570577,
    "lon": 2.475719364,
    "distance_to_route_km": 3.607
  },
  {
    "osm_id": "node/1089280930",
    "type": null,
    "name": null,
    "website": null,
    "phone": null,
    "lat": 48.930517999709544,
    "lon": 2.4951251,
    "distance_to_route_km": 1.547
  },
  {
    "osm_id": "way/141839143",
    "type": null,
    "name": "Hôtel du Parc",
    "website": null,
    "phone": null,
    "lat": 48.930441142566714,
    "lon": 2.494950142857143,
    "distance_to_route_km": 1.557
  },
  {
    "osm_id": "node/3058136841",
    "type": null,
    "name": "Hôtel de Strasbourg",
    "website": null,
    "phone": null,
    "lat": 48.92744899971032,
    "lon": 2.4904129,
    "distance_to_route_km": 1.549
  },
  {
    "osm_id": "way/141825350",
    "type": null,
    "name": "Confotel Aulnay",
    "website": null,
    "phone": null,
    "lat": 48.926948122787365,
    "lon": 2.495420353846154,
    "distance_to_route_km": 1.243
  },
  {
    "osm_id": "way/144282322",
    "type": null,
    "name": "Hôtel F1",
    "website": null,
    "phone": null,
    "lat": 48.87989072913388,
    "lon": 2.4999658117647057,
    "distance_to_route_km": 3.318
  },
  {
    "osm_id": "way/144291858",
    "type": null,
    "name": "Hôtel F1",
    "website": null,
    "phone": null,
    "lat": 48.880102582075004,
    "lon": 2.50045384117647,
    "distance_to_route_km": 3.302
  },
  {
    "osm_id": "way/84193112",
    "type": null,
    "name": null,
    "website": null,
    "phone": null,
    "lat": 48.90286900559877,
    "lon": 2.491494047058824,
    "distance_to_route_km": 0.696
  },
  {
    "osm_id": "node/3833920457",
    "type": null,
    "name": "B&B Hôtel",
    "website": "https://www.hotel-bb.com/fr/hotels/paris-est-bondy.htm",
    "phone": null,
    "lat": 48.90540659971577,
    "lon": 2.4790191,
    "distance_to_route_km": 0.151
  },
  {
    "osm_id": "node/5643181121",
    "type": null,
    "name": null,
    "website": null,
    "phone": null,
    "lat": 48.87104979972431,
    "lon": 2.488429,
    "distance_to_route_km": 4.004
  },
  {
    "osm_id": "node/13360561725",
    "type": null,
    "name": "Montempô Paris Noisy-le-Sec",
    "website": "https://www.montempo.fr/appart-hotels/paris-noisy-le-sec/",
    "phone": "+33 1 89 41 04 29",
    "lat": 48.90298349971639,
    "lon": 2.4680422,
    "distance_to_route_km": 0.221
  },
  {
    "osm_id": "way/144163524",
    "type": null,
    "name": "B&B HOTEL Paris Rosny-sous-Bois",
    "website": "https://www.hotel-bb.com/en/hotel/paris-rosny-sous-bois",
    "phone": "+33 298 337 529",
    "lat": 48.877822014537436,
    "lon": 2.4752873740740737,
    "distance_to_route_km": 3.043
  },
  {
    "osm_id": "way/144171017",
    "type": null,
    "name": "Cheap Beds",
    "website": null,
    "phone": null,
    "lat": 48.886336859335884,
    "lon": 2.471444380769231,
    "distance_to_route_km": 2.057
  },
  {
    "osm_id": "way/144163690",
    "type": null,
    "name": "The Original Paris Est Golf",
    "website": "www.paris-hotel-rosny.com",
    "phone": "+33 1 48 94 33 08",
    "lat": 48.876369964428875,
    "lon": 2.4742192147058826,
    "distance_to_route_km": 3.172
  },
  {
    "osm_id": "node/3697203748",
    "type": null,
    "name": null,
    "website": null,
    "phone": null,
    "lat": 48.89587719971814,
    "lon": 2.4608699,
    "distance_to_route_km": 0.823
  },
  {
    "osm_id": "way/81286873",
    "type": null,
    "name": "Hôtel Campanile",
    "website": null,
    "phone": null,
    "lat": 48.90588647590614,
    "lon": 2.457581909523809,
    "distance_to_route_km": 0.328
  },
  {
    "osm_id": "way/81285124",
    "type": null,
    "name": "Ibis Styles",
    "website": "https://all.accor.com/hotel/B5Z7/index.fr.shtml",
    "phone": null,
    "lat": 48.906006559715635,
    "lon": 2.4566592800000002,
    "distance_to_route_km": 0.361
  },
  {
    "osm_id": "node/13282481601",
    "type": null,
    "name": "Hôtel Kyriad Le Bourget",
    "website": "https://hotel-borget.fr/",
    "phone": null,
    "lat": 48.93987599970723,
    "lon": 2.4310008,
    "distance_to_route_km": 4.507
  },
  {
    "osm_id": "node/3100439674",
    "type": null,
    "name": "Le Marceau",
    "website": null,
    "phone": null,
    "lat": 48.930154599709645,
    "lon": 2.4312445,
    "distance_to_route_km": 3.467
  },
  {
    "osm_id": "way/84419168",
    "type": null,
    "name": "Résidence Orfea Le Bourget",
    "website": null,
    "phone": "+33 1 48 31 15 95",
    "lat": 48.930505527369135,
    "lon": 2.4323466276595753,
    "distance_to_route_km": 3.48
  },
  {
    "osm_id": "node/5976005260",
    "type": null,
    "name": "Première Classe Paris Est - Bobigny - Drancy",
    "website": null,
    "phone": null,
    "lat": 48.91378289971371,
    "lon": 2.4349185,
    "distance_to_route_km": 1.665
  },
  {
    "osm_id": "way/379394806",
    "type": null,
    "name": "B&B Hôtel Paris Romainville Noisy-le-Sec",
    "website": "https://www.hotel-bb.com/en/hotels/paris-romainville-noisy-le-sec.htm",
    "phone": "+33 892 70 53 10",
    "lat": 48.89229723721902,
    "lon": 2.4418131,
    "distance_to_route_km": 0.784
  },
  {
    "osm_id": "node/4373511291",
    "type": null,
    "name": "Stan kod Kloda",
    "website": null,
    "phone": "+33 1 42876639",
    "lat": 48.85972769972713,
    "lon": 2.4517532,
    "distance_to_route_km": 4.452
  },
  {
    "osm_id": "node/4373531190",
    "type": null,
    "name": null,
    "website": null,
    "phone": null,
    "lat": 48.85943879972717,
    "lon": 2.4511046,
    "distance_to_route_km": 4.47
  },
  {
    "osm_id": "node/9759500137",
    "type": null,
    "name": "Confort Hotel Romainville",
    "website": "https://www.conforthotel.fr/",
    "phone": "+33148594614",
    "lat": 48.876941099722835,
    "lon": 2.4452516,
    "distance_to_route_km": 2.484
  },
  {
    "osm_id": "node/9819996217",
    "type": null,
    "name": "Twenty Campus - Résidence Étudiante",
    "website": "https://www.twenty-campus.com/fr/residences/tc-le-bourget/",
    "phone": null,
    "lat": 48.93288889970896,
    "lon": 2.4215921,
    "distance_to_route_km": 3.98
  },
  {
    "osm_id": "node/9943726088",
    "type": null,
    "name": "Ibis Styles Paris Romainville",
    "website": "https://all.accor.com/hotel/B5U8/index.fr.shtml",
    "phone": "+33 1 88 59 04 10",
    "lat": 48.89415669971858,
    "lon": 2.4292525,
    "distance_to_route_km": 0.319
  },
  {
    "osm_id": "node/1954985287",
    "type": null,
    "name": "Ibis Styles Paris Mairie de Montreuil",
    "website": null,
    "phone": null,
    "lat": 48.8625558997264,
    "lon": 2.4435914,
    "distance_to_route_km": 3.983
  },
  {
    "osm_id": "node/7546256029",
    "type": null,
    "name": "Hôtel du Cheval Noir",
    "website": "https://www.lechevalnoir.fr/",
    "phone": "+33 1 48 45 80 64",
    "lat": 48.895291399718296,
    "lon": 2.4261792,
    "distance_to_route_km": 0.142
  },
  {
    "osm_id": "node/2040171871",
    "type": null,
    "name": "Première Classe",
    "website": null,
    "phone": null,
    "lat": 48.86858589972493,
    "lon": 2.4312192,
    "distance_to_route_km": 3.128
  },
  {
    "osm_id": "node/3594585515",
    "type": null,
    "name": "L'Univers",
    "website": null,
    "phone": null,
    "lat": 48.85835279972744,
    "lon": 2.4321797,
    "distance_to_route_km": 4.264
  },
  {
    "osm_id": "way/81280459",
    "type": null,
    "name": null,
    "website": null,
    "phone": null,
    "lat": 48.9067925663821,
    "lon": 2.423741220833333,
    "distance_to_route_km": 1.136
  },
  {
    "osm_id": "way/81280254",
    "type": null,
    "name": "Comfort Hotel",
    "website": null,
    "phone": null,
    "lat": 48.90576147244296,
    "lon": 2.4226516545454544,
    "distance_to_route_km": 1.021
  },
  {
    "osm_id": "way/235192483",
    "type": null,
    "name": "B&B Hôtel Paris Le Bourget",
    "website": "https://www.hotel-bb.com/fr/-/hotelByName.htm?id",
    "phone": "08 92 70 21 00",
    "lat": 48.92897229970994,
    "lon": 2.4188543,
    "distance_to_route_km": 3.603
  },
  {
    "osm_id": "way/456203769",
    "type": null,
    "name": "B&B Hôtel Paris Est Bobigny",
    "website": "https://www.hotel-bb.com/fr/hotels/paris-est-bobigny.htm",
    "phone": "0 890 64 97 13",
    "lat": 48.91551147114184,
    "lon": 2.4172221000000005,
    "distance_to_route_km": 2.11
  },
  {
    "osm_id": "node/4162531889",
    "type": null,
    "name": "ibis Paris le bourget",
    "website": "https://all.accor.com/hotel/3438/index.fr.shtml",
    "phone": "+33 1 48 38 33 33",
    "lat": 48.9323704997091,
    "lon": 2.4104676,
    "distance_to_route_km": 4.003
  },
  {
    "osm_id": "node/4561716789",
    "type": null,
    "name": null,
    "website": null,
    "phone": null,
    "lat": 48.918438299712555,
    "lon": 2.4077309,
    "distance_to_route_km": 2.499
  },
  {
    "osm_id": "node/4838250473",
    "type": null,
    "name": "Hôtel du Parc",
    "website": null,
    "phone": null,
    "lat": 48.880328399721996,
    "lon": 2.4217508,
    "distance_to_route_km": 1.743
  },
  {
    "osm_id": "node/11157784942",
    "type": null,
    "name": "Séjours & Affaires",
    "website": "https://www.sejours-affaires.com/residence-hoteliere-aparthotel-bagnolet-371.html",
    "phone": null,
    "lat": 48.86438629972595,
    "lon": 2.4176287,
    "distance_to_route_km": 3.435
  },
  {
    "osm_id": "node/11249182174",
    "type": null,
    "name": "B&B Hotel",
    "website": null,
    "phone": "+33 1 72 77 12 61",
    "lat": 48.868653399724906,
    "lon": 2.4154414,
    "distance_to_route_km": 2.951
  },
  {
    "osm_id": "node/2414716190",
    "type": null,
    "name": "Campanile Paris Est - Porte de Bagnolet",
    "website": "https://paris-est-porte-de-bagnolet.campanile.com/fr-fr/",
    "phone": "+33 8 92 23 48 12;+33 1 48 97 36 00",
    "lat": 48.86528149972573,
    "lon": 2.4164888,
    "distance_to_route_km": 3.329
  },
  {
    "osm_id": "node/303825545",
    "type": null,
    "name": "Novotel Paris Est",
    "website": "https://novotel.accor.com/fr/france/index.shtml",
    "phone": null,
    "lat": 48.863310499726225,
    "lon": 2.4154593,
    "distance_to_route_km": 3.544
  },
  {
    "osm_id": "node/472398313",
    "type": null,
    "name": "Ibis Budget Porte de Bagnolet",
    "website": null,
    "phone": null,
    "lat": 48.86655379972542,
    "lon": 2.4164224,
    "distance_to_route_km": 3.188
  },
  {
    "osm_id": "node/472398315",
    "type": null,
    "name": "Ibis Porte de Bagnolet",
    "website": null,
    "phone": null,
    "lat": 48.86657309972539,
    "lon": 2.4168062,
    "distance_to_route_km": 3.188
  },
  {
    "osm_id": "node/5805274754",
    "type": null,
    "name": "Le Pixi",
    "website": null,
    "phone": null,
    "lat": 48.86022339972699,
    "lon": 2.4206519,
    "distance_to_route_km": 3.92
  },
  {
    "osm_id": "node/6957117385",
    "type": null,
    "name": "Hôtel ibis Paris Pantin Église",
    "website": "https://all.accor.com/hotel/2082/index.fr.shtml",
    "phone": "+33 1 48 10 67 00",
    "lat": 48.89353529971875,
    "lon": 2.4136937,
    "distance_to_route_km": 0.181
  },
  {
    "osm_id": "way/81613499",
    "type": null,
    "name": "Hôtel Reseda Paris",
    "website": "https://hotel-reseda-paris.com",
    "phone": "+33 1 49 72 63 00",
    "lat": 48.866242991725485,
    "lon": 2.41734966,
    "distance_to_route_km": 3.228
  },
  {
    "osm_id": "node/10288258118",
    "type": null,
    "name": "Séjours & Affaires Pantin Charles de Gaulle",
    "website": "https://www.sejours-affaires.com/residence-hoteliere-aparthotel-pantin-23.html",
    "phone": null,
    "lat": 48.89321859971879,
    "lon": 2.4125444,
    "distance_to_route_km": 0.214
  },
  {
    "osm_id": "node/7730454667",
    "type": null,
    "name": "Café Hôtel de France",
    "website": null,
    "phone": null,
    "lat": 48.889251099719786,
    "lon": 2.4111774,
    "distance_to_route_km": 0.654
  },
  {
    "osm_id": "way/421546149",
    "type": null,
    "name": "B&B Hôtel",
    "website": "https://www.hotel-bb.com/fr/hotels/paris-porte-des-lilas.htm",
    "phone": null,
    "lat": 48.88010644972206,
    "lon": 2.4076573100000003,
    "distance_to_route_km": 1.688
  },
  {
    "osm_id": "node/8108042939",
    "type": null,
    "name": "Hôtel Rachel",
    "website": null,
    "phone": null,
    "lat": 48.88265849972142,
    "lon": 2.4036308,
    "distance_to_route_km": 1.425
  },
  {
    "osm_id": "way/684466692",
    "type": null,
    "name": "La belle ville",
    "website": null,
    "phone": null,
    "lat": 48.87719187972278,
    "lon": 2.40577142,
    "distance_to_route_km": 2.021
  },
  {
    "osm_id": "way/70003685",
    "type": null,
    "name": "Hôtel Lilas-Gambetta",
    "website": "http://www.lilas-gambetta.com/",
    "phone": "+33 1 40 31 85 60",
    "lat": 48.874273746390166,
    "lon": 2.4051894533333336,
    "distance_to_route_km": 2.347
  },
  {
    "osm_id": "node/7157543256",
    "type": null,
    "name": "Hôtel Campanile Paris Est - Pantin",
    "website": "https://www.campanile.com/fr/hotels/campanile-paris-est-pantin",
    "phone": "+33 1 48 91 32 76",
    "lat": 48.89114929971934,
    "lon": 2.4034084,
    "distance_to_route_km": 0.494
  },
  {
    "osm_id": "way/73119871",
    "type": null,
    "name": "Ibis Budget Paris Porte de Pantin",
    "website": null,
    "phone": "+33 1 48 40 22 80",
    "lat": 48.89665608392847,
    "lon": 2.4037579552631576,
    "distance_to_route_km": 0.118
  },
  {
    "osm_id": "node/2131789817",
    "type": null,
    "name": "CPH pre st gervais - Association Aurore",
    "website": null,
    "phone": null,
    "lat": 48.88939619971975,
    "lon": 2.4008732,
    "distance_to_route_km": 0.713
  },
  {
    "osm_id": "way/73111558",
    "type": null,
    "name": null,
    "website": null,
    "phone": null,
    "lat": 48.902243441383234,
    "lon": 2.402432575,
    "distance_to_route_km": 0.72
  },
  {
    "osm_id": "node/12972962377",
    "type": null,
    "name": "Tribe Paris Pantin",
    "website": "https://tribehotels.com/fr/france/paris-pantin/",
    "phone": "+33 1 87 21 38 09",
    "lat": 48.89530929971826,
    "lon": 2.4003834,
    "distance_to_route_km": 0.065
  },
  {
    "osm_id": "node/894713136",
    "type": null,
    "name": "Hôtel du Canal",
    "website": null,
    "phone": null,
    "lat": 48.89549579971825,
    "lon": 2.4002072,
    "distance_to_route_km": 0.046
  },
  {
    "osm_id": "node/6053550958",
    "type": null,
    "name": "Hôtel Mercure Paris Porte de Pantin",
    "website": "https://all.accor.com/hotel/2799/index.fr.shtml",
    "phone": "+33 1 48 91 66 00",
    "lat": 48.88991869971962,
    "lon": 2.3991094,
    "distance_to_route_km": 0.658
  },
  {
    "osm_id": "node/894713146",
    "type": null,
    "name": "Au royal Pantin",
    "website": null,
    "phone": null,
    "lat": 48.89515849971833,
    "lon": 2.3996139,
    "distance_to_route_km": 0.075
  },
  {
    "osm_id": "way/73113228",
    "type": null,
    "name": "Art Hotel Paris Est",
    "website": null,
    "phone": null,
    "lat": 48.89336281148347,
    "lon": 2.3982910470588235,
    "distance_to_route_km": 0.281
  },
  {
    "osm_id": "node/3648919847",
    "type": null,
    "name": "Villa 27",
    "website": null,
    "phone": null,
    "lat": 48.9089671997149,
    "lon": 2.398189,
    "distance_to_route_km": 1.454
  },
  {
    "osm_id": "node/3648761387",
    "type": null,
    "name": "Le New Provencal",
    "website": null,
    "phone": null,
    "lat": 48.90864309971498,
    "lon": 2.3978037,
    "distance_to_route_km": 1.418
  },
  {
    "osm_id": "node/3674764058",
    "type": null,
    "name": "Modern hôtel",
    "website": null,
    "phone": null,
    "lat": 48.91302979971389,
    "lon": 2.3955071,
    "distance_to_route_km": 1.911
  },
  {
    "osm_id": "node/11343601469",
    "type": null,
    "name": "UD 23",
    "website": null,
    "phone": null,
    "lat": 48.930937299709434,
    "lon": 2.3757711,
    "distance_to_route_km": 4.167
  },
  {
    "osm_id": "node/11659612813",
    "type": null,
    "name": "B&B Hotel",
    "website": null,
    "phone": null,
    "lat": 48.93380779970872,
    "lon": 2.3729919,
    "distance_to_route_km": 4.536
  },
  {
    "osm_id": "node/2202833399",
    "type": null,
    "name": "La Planète Bleue",
    "website": null,
    "phone": null,
    "lat": 48.9048641997159,
    "lon": 2.3905848,
    "distance_to_route_km": 1.074
  },
  {
    "osm_id": "node/3681903330",
    "type": null,
    "name": "Couto Gaia",
    "website": null,
    "phone": null,
    "lat": 48.90514019971584,
    "lon": 2.3933622,
    "distance_to_route_km": 1.063
  },
  {
    "osm_id": "node/4459257298",
    "type": null,
    "name": "Hôtel Le Magistral",
    "website": null,
    "phone": null,
    "lat": 48.900774899716936,
    "lon": 2.3923322,
    "distance_to_route_km": 0.601
  },
  {
    "osm_id": "node/4459257299",
    "type": null,
    "name": "Hôtel du Périgord",
    "website": null,
    "phone": null,
    "lat": 48.90076539971693,
    "lon": 2.3924331,
    "distance_to_route_km": 0.598
  },
  {
    "osm_id": "node/4459257300",
    "type": null,
    "name": "La Géode Bleue",
    "website": null,
    "phone": null,
    "lat": 48.90079299971692,
    "lon": 2.3921918,
    "distance_to_route_km": 0.607
  },
  {
    "osm_id": "node/4698723791",
    "type": null,
    "name": null,
    "website": null,
    "phone": null,
    "lat": 48.90424799971608,
    "lon": 2.3906748,
    "distance_to_route_km": 1.006
  },
  {
    "osm_id": "node/8375257957",
    "type": null,
    "name": "L'Oiseau Bleu",
    "website": null,
    "phone": null,
    "lat": 48.91563989971325,
    "lon": 2.3815803,
    "distance_to_route_km": 2.428
  },
  {
    "osm_id": "node/13159950211",
    "type": null,
    "name": "Hôtel de Paris",
    "website": null,
    "phone": null,
    "lat": 48.930705799709514,
    "lon": 2.358469,
    "distance_to_route_km": 4.706
  },
  {
    "osm_id": "node/5535918797",
    "type": null,
    "name": "B&b Hôtel",
    "website": "https://www.hotel-bb.com/fr/hotel/paris-porte-de-la-villette",
    "phone": null,
    "lat": 48.901335099716796,
    "lon": 2.3890127,
    "distance_to_route_km": 0.755
  },
  {
    "osm_id": "node/5898901085",
    "type": null,
    "name": "Fabian’s Studio",
    "website": null,
    "phone": null,
    "lat": 48.930821199709484,
    "lon": 2.3647211,
    "distance_to_route_km": 4.483
  },
  {
    "osm_id": "node/6525710491",
    "type": null,
    "name": "Ibis budget Paris Aubervilliers",
    "website": "https://www.accorhotels.com/fr/hotel-3491-ibis-budget-paris-aubervilliers/index.shtml",
    "phone": "+33 1 43 52 02 20",
    "lat": 48.91048229971452,
    "lon": 2.3802857,
    "distance_to_route_km": 1.954
  },
  {
    "osm_id": "node/8378316470",
    "type": null,
    "name": "Le café du marché",
    "website": null,
    "phone": null,
    "lat": 48.914345199713566,
    "lon": 2.3792528,
    "distance_to_route_km": 2.368
  },
  {
    "osm_id": "node/1035459678",
    "type": null,
    "name": "Novotel Suites",
    "website": "https://all.accor.com/hotel/3325/index.fr.shtml",
    "phone": null,
    "lat": 48.92364329971126,
    "lon": 2.362907,
    "distance_to_route_km": 3.874
  },
  {
    "osm_id": "node/1370988276",
    "type": null,
    "name": "Les Séjours du Grand Stade",
    "website": null,
    "phone": null,
    "lat": 48.92370569971125,
    "lon": 2.3646771,
    "distance_to_route_km": 3.807
  },
  {
    "osm_id": "node/4247072090",
    "type": null,
    "name": "Novotel",
    "website": null,
    "phone": null,
    "lat": 48.929963399709685,
    "lon": 2.3569539,
    "distance_to_route_km": 4.699
  },
  {
    "osm_id": "node/4701731889",
    "type": null,
    "name": "moderne hotel",
    "website": null,
    "phone": null,
    "lat": 48.93061909970953,
    "lon": 2.3566981,
    "distance_to_route_km": 4.77
  },
  {
    "osm_id": "way/63977976",
    "type": null,
    "name": "Ibis Budget",
    "website": null,
    "phone": null,
    "lat": 48.92131204018803,
    "lon": 2.364606007142857,
    "distance_to_route_km": 3.591
  },
  {
    "osm_id": "node/7832726685",
    "type": null,
    "name": "Au Rendez Vous des Camioneurs",
    "website": null,
    "phone": null,
    "lat": 48.91031729971455,
    "lon": 2.3731235,
    "distance_to_route_km": 2.237
  },
  {
    "osm_id": "way/63980435",
    "type": null,
    "name": "Ibis",
    "website": null,
    "phone": null,
    "lat": 48.925719024710745,
    "lon": 2.354549980357143,
    "distance_to_route_km": 4.421
  },
  {
    "osm_id": "node/861288578",
    "type": null,
    "name": "Hôtel Mercure Paris 19 Philharmonie La Villette",
    "website": null,
    "phone": "+33 1 44 84 18 18",
    "lat": 48.88887739971988,
    "lon": 2.3943052,
    "distance_to_route_km": 0.591
  },
  {
    "osm_id": "node/952053143",
    "type": null,
    "name": "Moxy Paris La Villette",
    "website": null,
    "phone": null,
    "lat": 48.89691989971788,
    "lon": 2.385325,
    "distance_to_route_km": 0.519
  },
  {
    "osm_id": "node/6039887503",
    "type": null,
    "name": "Aparthotels Adagio La Villette",
    "website": "https://www.adagio-city.com/fr/hotel-8368-aparthotel-adagio-access-paris-la-villette/index.shtml",
    "phone": "+33 1 44 72 42 00",
    "lat": 48.89651959971798,
    "lon": 2.38481,
    "distance_to_route_km": 0.508
  },
  {
    "osm_id": "way/1219315949",
    "type": null,
    "name": "Aparthotel Adagio Paris 19eme Cité de la Musique",
    "website": null,
    "phone": null,
    "lat": 48.885858962220624,
    "lon": 2.396927775,
    "distance_to_route_km": 0.972
  },
  {
    "osm_id": "way/64039451",
    "type": null,
    "name": "Hilton Garden Inn Paris La Villette",
    "website": "https://www.hilton.com/en/hotels/orygigi-hilton-garden-inn-paris-la-villette/",
    "phone": "+33 1 88 83 20 50",
    "lat": 48.896243199718064,
    "lon": 2.382815285714286,
    "distance_to_route_km": 0.57
  },
  {
    "osm_id": "node/3282475687",
    "type": null,
    "name": "maison",
    "website": null,
    "phone": null,
    "lat": 48.89923099971731,
    "lon": 2.378207,
    "distance_to_route_km": 1.036
  },
  {
    "osm_id": "node/409012772",
    "type": null,
    "name": "Au Bœuf Couronné - Hôtel & Restaurant",
    "website": "https://www.boeuf-couronne.com",
    "phone": null,
    "lat": 48.88800869972009,
    "lon": 2.3909356,
    "distance_to_route_km": 0.516
  },
  {
    "osm_id": "way/64040950",
    "type": null,
    "name": "Hôtel ibis Paris la Villette Cité des Sciences 19ème",
    "website": "https://www.ibishotel.com/fr/hotel-1401-ibis-paris-la-villette-cite-des-sciences-19eme/location.shtml",
    "phone": "+331 40 38 04 04",
    "lat": 48.89198443827333,
    "lon": 2.3848233554216858,
    "distance_to_route_km": 0.112
  },
  {
    "osm_id": "node/1222301078",
    "type": null,
    "name": "Hôtel de la Plaine",
    "website": null,
    "phone": null,
    "lat": 48.91548099971329,
    "lon": 2.3560943,
    "distance_to_route_km": 3.455
  },
  {
    "osm_id": "node/12641196092",
    "type": null,
    "name": "Easy hôtel",
    "website": null,
    "phone": null,
    "lat": 48.90623489971557,
    "lon": 2.3664873,
    "distance_to_route_km": 2.177
  },
  {
    "osm_id": "node/12920079632",
    "type": null,
    "name": "Break and home",
    "website": null,
    "phone": null,
    "lat": 48.907486899715266,
    "lon": 2.3663156,
    "distance_to_route_km": 2.296
  },
  {
    "osm_id": "way/63993218",
    "type": null,
    "name": "Ibis Styles",
    "website": null,
    "phone": null,
    "lat": 48.91418562971359,
    "lon": 2.358406655,
    "distance_to_route_km": 3.238
  },
  {
    "osm_id": "node/3255863661",
    "type": null,
    "name": "Hôtel Rhin et Danube",
    "website": null,
    "phone": null,
    "lat": 48.882235499721524,
    "lon": 2.3930133,
    "distance_to_route_km": 1.12
  },
  {
    "osm_id": "node/5152198335",
    "type": null,
    "name": "Hôtel Restaurant Campanile Paris La Villette",
    "website": "https://www.campanile.com/fr/hotels/campanile-paris-19-la-villette",
    "phone": "+33144724646",
    "lat": 48.893389599718766,
    "lon": 2.3798791,
    "distance_to_route_km": 0.449
  },
  {
    "osm_id": "node/6525710490",
    "type": null,
    "name": "Residhome Paris Rosa Parks",
    "website": "https://www.residhome.com/plan-residence-hoteliere-aparthotel-paris-289.html",
    "phone": null,
    "lat": 48.89561839971821,
    "lon": 2.372463,
    "distance_to_route_km": 0.971
  },
  {
    "osm_id": "node/11232556540",
    "type": null,
    "name": "Okko hotêl",
    "website": null,
    "phone": null,
    "lat": 48.896320399718036,
    "lon": 2.3716012,
    "distance_to_route_km": 1.071
  },
  {
    "osm_id": "node/12073622476",
    "type": null,
    "name": "Paris Pleyel Resort",
    "website": "https://www.h4hotelwyndham.com/fr/",
    "phone": "+33 1 80 60 96 66",
    "lat": 48.920188699712114,
    "lon": 2.3450515,
    "distance_to_route_km": 4.358
  },
  {
    "osm_id": "node/1218244417",
    "type": null,
    "name": "B&b Hôtel",
    "website": "https://www.hotel-bb.com/fr/-/hotelByName.htm?id=4520",
    "phone": null,
    "lat": 48.92192149971168,
    "lon": 2.3432427,
    "distance_to_route_km": 4.592
  },
  {
    "osm_id": "node/541646563",
    "type": null,
    "name": "Courtyard by Marriott",
    "website": null,
    "phone": null,
    "lat": 48.92221439971163,
    "lon": 2.343079,
    "distance_to_route_km": 4.625
  },
  {
    "osm_id": "node/6080325385",
    "type": null,
    "name": "Gresset",
    "website": null,
    "phone": null,
    "lat": 48.89047069971948,
    "lon": 2.3778698,
    "distance_to_route_km": 0.275
  },
  {
    "osm_id": "node/11828726141",
    "type": null,
    "name": "Aparthotel Adagio Access",
    "website": "https://all.accor.com",
    "phone": null,
    "lat": 48.918368599712565,
    "lon": 2.3427058,
    "distance_to_route_km": 4.301
  },
  {
    "osm_id": "node/274247570",
    "type": null,
    "name": "City Inn Paris",
    "website": "https://cityinnparis.top/",
    "phone": "+33 1 40 36 75 29",
    "lat": 48.89117369971931,
    "lon": 2.376409,
    "distance_to_route_km": 0.401
  },
  {
    "osm_id": "node/3282495251",
    "type": null,
    "name": "Tréma",
    "website": "http://www.hoteltrema.fr",
    "phone": null,
    "lat": 48.890936199719356,
    "lon": 2.3762313,
    "distance_to_route_km": 0.388
  },
  {
    "osm_id": "node/332431640",
    "type": null,
    "name": "St Christopher's Inn",
    "website": null,
    "phone": null,
    "lat": 48.888514799719964,
    "lon": 2.3788605,
    "distance_to_route_km": 0.062
  },
  {
    "osm_id": "node/4261646093",
    "type": null,
    "name": "Novotel Porte de la Chapelle",
    "website": null,
    "phone": null,
    "lat": 48.90170399971672,
    "lon": 2.3596074,
    "distance_to_route_km": 2.092
  },
  {
    "osm_id": "node/5026913248",
    "type": null,
    "name": "Hôtel Ibis Styles Paris Crimée La Villette",
    "website": "https://www.accorhotels.com/fr/hotel-9733-ibis-styles-paris-crimee-la-villette/index.shtml",
    "phone": "+33 1 40 38 91 00",
    "lat": 48.89246999971899,
    "lon": 2.3745337,
    "distance_to_route_km": 0.599
  },
  {
    "osm_id": "node/5101320813",
    "type": null,
    "name": "Hôtel Paris Villette",
    "website": "https://www.parisvillette.com/",
    "phone": "+33 1 40 37 50 74",
    "lat": 48.89295899971887,
    "lon": 2.3731031,
    "distance_to_route_km": 0.708
  },
  {
    "osm_id": "node/5279343800",
    "type": null,
    "name": "Hôtel Ibis Budget Porte de la Chapelle-Aréna",
    "website": "https://all.accor.com/hotel/5091/index.en.shtml",
    "phone": "+33 1 58 34 00 10",
    "lat": 48.901634599716715,
    "lon": 2.3602843,
    "distance_to_route_km": 2.052
  },
  {
    "osm_id": "node/861290071",
    "type": null,
    "name": "Holiday Inn Express : Hôtel Paris-Canal De La Villette",
    "website": null,
    "phone": null,
    "lat": 48.88840529972,
    "lon": 2.378521,
    "distance_to_route_km": 0.08
  },
  {
    "osm_id": "node/11205364137",
    "type": null,
    "name": null,
    "website": null,
    "phone": null,
    "lat": 48.880562699721956,
    "lon": 2.3887277,
    "distance_to_route_km": 1.034
  },
  {
    "osm_id": "node/12004081777",
    "type": null,
    "name": "Hôtel de la gare",
    "website": null,
    "phone": null,
    "lat": 48.88494819972085,
    "lon": 2.3834823,
    "distance_to_route_km": 0.414
  },
  {
    "osm_id": "way/70001526",
    "type": null,
    "name": "Résidence Le Belleville",
    "website": null,
    "phone": null,
    "lat": 48.87518376126174,
    "lon": 2.393727146153846,
    "distance_to_route_km": 1.731
  },
  {
    "osm_id": "way/70002966",
    "type": null,
    "name": "Hôtel Levert",
    "website": null,
    "phone": null,
    "lat": 48.87506597245058,
    "lon": 2.392019236363636,
    "distance_to_route_km": 1.667
  },
  {
    "osm_id": "node/2888098851",
    "type": null,
    "name": "Adagio Aparthotel",
    "website": null,
    "phone": null,
    "lat": 48.87800909972257,
    "lon": 2.3872453,
    "distance_to_route_km": 1.196
  },
  {
    "osm_id": "node/7974976922",
    "type": null,
    "name": "Margot",
    "website": null,
    "phone": null,
    "lat": 48.87896779972234,
    "lon": 2.3858278,
    "distance_to_route_km": 1.049
  },
  {
    "osm_id": "way/63237481",
    "type": null,
    "name": "Ibis Styles Paris Buttes Chaumont",
    "website": null,
    "phone": null,
    "lat": 48.88452596638762,
    "lon": 2.379346072222222,
    "distance_to_route_km": 0.27
  },
  {
    "osm_id": "node/2908285601",
    "type": null,
    "name": "Hôtel de la Perdrix Rouge",
    "website": "https://www.hotel-perdrixrouge-paris.com",
    "phone": null,
    "lat": 48.87541469972322,
    "lon": 2.3888922,
    "distance_to_route_km": 1.497
  },
  {
    "osm_id": "node/2395125709",
    "type": null,
    "name": "Green Park Hotel",
    "website": null,
    "phone": null,
    "lat": 48.87831079972249,
    "lon": 2.3843089,
    "distance_to_route_km": 1.037
  },
  {
    "osm_id": "node/4513191889",
    "type": null,
    "name": "Hôtel Tilde",
    "website": null,
    "phone": "+33 1 40 36 25 69",
    "lat": 48.88721349972029,
    "lon": 2.3729957,
    "distance_to_route_km": 0.252
  },
  {
    "osm_id": "way/63971313",
    "type": null,
    "name": "Ibis Budget Paris La Villette",
    "website": "https://all.accor.com/hotel/4982/index.fr.shtml",
    "phone": null,
    "lat": 48.88468583450352,
    "lon": 2.3760756826086955,
    "distance_to_route_km": 0.11
  },
  {
    "osm_id": "way/70002875",
    "type": null,
    "name": "Huni Hôtel",
    "website": "https://www.hunihotelparis.com/",
    "phone": "+33 1 46 36 64 22",
    "lat": 48.87424523305684,
    "lon": 2.3877538666666664,
    "distance_to_route_km": 1.549
  },
  {
    "osm_id": "node/10062622821",
    "type": null,
    "name": "Briard",
    "website": null,
    "phone": null,
    "lat": 48.89282379971891,
    "lon": 2.3635881,
    "distance_to_route_km": 1.162
  },
  {
    "osm_id": "node/10062622822",
    "type": null,
    "name": "Le Pactole",
    "website": null,
    "phone": "+33 1 46 07 32 43",
    "lat": 48.89171909971917,
    "lon": 2.3634608,
    "distance_to_route_km": 1.07
  },
  {
    "osm_id": "way/63212808",
    "type": null,
    "name": "Abricôtel",
    "website": null,
    "phone": null,
    "lat": 48.8831874997213,
    "lon": 2.3736378117647052,
    "distance_to_route_km": 0.138
  },
  {
    "osm_id": "way/63212089",
    "type": null,
    "name": "Hôtel du Marché",
    "website": null,
    "phone": null,
    "lat": 48.881769755971646,
    "lon": 2.3741028375,
    "distance_to_route_km": 0.285
  },
  {
    "osm_id": "relation/1000411",
    "type": null,
    "name": "Hôtel Libertel Canal Saint-Martin",
    "website": "https://www.libertel-canal-saint-martin.com/",
    "phone": "+33 1 42 06 62 00",
    "lat": 48.882400488610386,
    "lon": 2.3711198555555555,
    "distance_to_route_km": 0.067
  },
  {
    "osm_id": "way/63213754",
    "type": null,
    "name": "Hôtel Relais Bergson",
    "website": "https://www.hotelbergson-paris.com/",
    "phone": "+33 1 42 08 31 17",
    "lat": 48.88048468305528,
    "lon": 2.3743576166666664,
    "distance_to_route_km": 0.385
  },
  {
    "osm_id": "way/63234957",
    "type": null,
    "name": "Hôtel des Buttes Chaumont",
    "website": "https://www.hotelparishbc.com/",
    "phone": "+33 1 42 45 33 81",
    "lat": 48.88212385527711,
    "lon": 2.3707858666666666,
    "distance_to_route_km": 0.082
  },
  {
    "osm_id": "way/63244080",
    "type": null,
    "name": "Hôtel de la Comète",
    "website": "https://www.hoteldelacomete.fr/",
    "phone": "+33142085588",
    "lat": 48.88217107115012,
    "lon": 2.3706233142857145,
    "distance_to_route_km": 0.074
  },
  {
    "osm_id": "node/11061853672",
    "type": null,
    "name": "Reims Hotel",
    "website": null,
    "phone": null,
    "lat": 48.885863799720624,
    "lon": 2.3663012,
    "distance_to_route_km": 0.417
  },
  {
    "osm_id": "node/12854806182",
    "type": null,
    "name": "Best Western",
    "website": null,
    "phone": null,
    "lat": 48.91210369971414,
    "lon": 2.336373,
    "distance_to_route_km": 4.064
  },
  {
    "osm_id": "node/13306718027",
    "type": null,
    "name": "Trianon",
    "website": null,
    "phone": "+33140113169",
    "lat": 48.91113919971437,
    "lon": 2.33281,
    "distance_to_route_km": 4.143
  },
  {
    "osm_id": "node/1401461539",
    "type": null,
    "name": "Hôtel de Nantes",
    "website": null,
    "phone": null,
    "lat": 48.88446499972097,
    "lon": 2.3679226,
    "distance_to_route_km": 0.222
  },
  {
    "osm_id": "node/2258450455",
    "type": null,
    "name": "Hôtel Riquet",
    "website": null,
    "phone": null,
    "lat": 48.89018659971956,
    "lon": 2.3614476,
    "distance_to_route_km": 1.015
  },
  {
    "osm_id": "node/2258450456",
    "type": null,
    "name": "Hôtel de la Poste",
    "website": null,
    "phone": null,
    "lat": 48.89020319971955,
    "lon": 2.3611081,
    "distance_to_route_km": 1.031
  },
  {
    "osm_id": "node/2305186078",
    "type": null,
    "name": "Hôtel Torcy",
    "website": null,
    "phone": null,
    "lat": 48.89108129971934,
    "lon": 2.3604459,
    "distance_to_route_km": 1.138
  },
  {
    "osm_id": "node/2311230666",
    "type": null,
    "name": "Auberge de jeunesse Yves Robert",
    "website": null,
    "phone": null,
    "lat": 48.888617199719945,
    "lon": 2.3628833,
    "distance_to_route_km": 0.812
  },
  {
    "osm_id": "node/2329714718",
    "type": null,
    "name": "Hôtel Belfort",
    "website": null,
    "phone": null,
    "lat": 48.892133999719064,
    "lon": 2.3603868,
    "distance_to_route_km": 1.237
  },
  {
    "osm_id": "node/5808817327",
    "type": null,
    "name": "Hôtel Paris Saint-Ouen",
    "website": "https://www.hotel-paris-saint-ouen.com",
    "phone": "+33143589600",
    "lat": 48.90963539971473,
    "lon": 2.3387707,
    "distance_to_route_km": 3.74
  },
  {
    "osm_id": "node/5892994620",
    "type": null,
    "name": "Les Puces de Saint-Ouen",
    "website": null,
    "phone": null,
    "lat": 48.907470999715265,
    "lon": 2.3364783,
    "distance_to_route_km": 3.66
  },
  {
    "osm_id": "node/7030012713",
    "type": null,
    "name": "Simon’s boutique hotel",
    "website": "https://simons-hotel.paris",
    "phone": "+33 1 88401600",
    "lat": 48.88976849971965,
    "lon": 2.3624911,
    "distance_to_route_km": 0.933
  },
  {
    "osm_id": "way/1181095209",
    "type": null,
    "name": "Tribe",
    "website": "https://all.accor.com/hotel/B717/index.fr.shtml",
    "phone": null,
    "lat": 48.91289467749171,
    "lon": 2.335435488888889,
    "distance_to_route_km": 4.176
  },