"Nom","Identifiant","Type","Sous-type","Sous-type","Commune","Code postal","Code INSEE","Département","Région","Latitude","Longitude","Site internet","Créateur","Mise à jour","Mise à jour DATAtourisme"
"Gîtes de la Rochère - Le 161","HLOCEN037V50XE6B","Lieu","Hébergement","Hébergement locatif","Noizay","37210","37171","Indre-et-Loire","Centre-Val de Loire","47.4197102","0.8737121","https://www.la-rochere.eu/","OFFICE AMBOISE","2026-03-11T00:00:00.000Z","2026-03-12T05:07:08.660Z"
"AVT Séjours pour tous","112908","Lieu","Hébergement","Hébergement collectif","Saint-Maurice-en-Trièves","38930","38424","Isère","Auvergne-Rhône-Alpes","44.762925","5.659312","https://www.avt-sejours-pour-tous.fr/,https://avt-sejours-pour-tous.fr/","Office de Tourisme du Trièves","2026-02-26T00:00:00.000Z","2026-02-27T06:56:13.644Z"
"Auberge de l'Echauguette","7250909","Lieu","Restauration,Hébergement","Restaurant,Hôtellerie","Mont-Dauphin","05600","05082","Hautes-Alpes","Provence-Alpes-Côte d'Azur","44.669487","6.624064","https://www.auberge-echauguette.fr/","Office de tourisme du Guillestrois et du Queyras","2026-02-25T00:00:00.000Z","2026-02-26T06:52:39.782Z"
"Intersport Montagne","520326","Produit,Lieu","Location,Commerce de détail,Prestataire de service","Location de matériel,Loueur de matériel","Arvieux","05350","05007","Hautes-Alpes","Provence-Alpes-Côte d'Azur","44.780882","6.734894","http://www.intersport-arvieux.com/","Office de tourisme du Guillestrois et du Queyras","2026-03-28T00:00:00.000Z","2026-03-29T05:44:31.897Z"
"Le mas de l'Auzon","7676519","Lieu","Hébergement","Hébergement locatif","Carpentras","84200","84031","Vaucluse","Provence-Alpes-Côte d'Azur","44.05847","5.043402",,"Office de tourisme  Ventoux Provence Tourisme","2026-02-25T00:00:00.000Z","2026-02-26T06:52:39.784Z"
"Chez Paul et Pauline","HLOCHA051V50PUY7","Lieu","Hébergement","Hébergement locatif","Germaine","51160","51266","Marne","Grand Est","49.12846","4.02118","https://chezpauletpauline.fr/","Office de tourisme de Hautvillers - Coeur de la Champagne","2026-04-03T00:00:00.000Z","2026-04-08T03:04:55.593Z"
"Gîte les Vernelles","5995364","Lieu","Hébergement","Hébergement locatif","Saint-Aubin-le-Monial","03160","03218","Allier","Auvergne-Rhône-Alpes","46.530841","2.995074",,"Office de tourisme du Bocage bourbonnais","2026-02-26T00:00:00.000Z","2026-02-27T06:56:13.651Z"
"Bike Service activités","7696378","Produit","Pratique",,"Valaurie","26230","26360","Drôme","Auvergne-Rhône-Alpes","44.417672","4.802257","http://www.bike-service26.fr/","Office de Tourisme Communautaire Pays de Grignan et Enclave des Papes","2026-02-26T00:00:00.000Z","2026-04-01T07:14:59.385Z"
"Camping Domaine de Lallé - POD Le Milan Rouge","HLOAQU019V505Y6L","Lieu","Hébergement","Hébergement locatif","Champagnac-la-Noaille","19320","19039","Corrèze","Nouvelle-Aquitaine","45.30704","2.015167","https://booking.camping.care/domaine-de-lalle?arrival=2026-03-02&departure=2026-03-16&category=camp&guests=%5B%7B%22id%22%3A10038%2C%22count%22%3A2%7D%2C%7B%22id%22%3A10037%2C%22count%22%3A0%7D%5D&back_url=https%3A%2F%2Fdomainedelalle.fr%2Ffr&lang=fr,https://booking.camping.care/domaine-de-lalle?arrival=2026-03-02&departure=2026-03-16&category=camp&guests=%5B%7B%22id%22%3A10038%2C%22count%22%3A2%7D%2C%7B%22id%22%3A10037%2C%22count%22%3A0%7D%5D&back_url=https%3A%2F%2Fdomainedelalle.fr%2Ffr&lang=fr","Office de tourisme Ventadour Egletons Monédières","2026-03-08T00:00:00.000Z","2026-04-11T01:07:59.938Z"
"La Vie Sauvage","RESHDF000V5092DQ","Lieu","Restauration","Bar, bar à thème","Eppe-Sauvage","59132","59198","Nord","Hauts-de-France","50.12042","4.178882",,"Marquetteurs","2026-02-25T00:00:00.000Z","2026-02-26T23:11:10.235Z"
"Camping de Lallé - POD Le Coucou Gris","HLOAQU019V505Y6Q","Lieu","Hébergement","Hébergement locatif","Champagnac-la-Noaille","19320","19039","Corrèze","Nouvelle-Aquitaine","45.3074217","1.9720374","https://booking.camping.care/domaine-de-lalle?arrival=2026-03-02&departure=2026-03-16&category=camp&guests=%5B%7B%22id%22%3A10038%2C%22count%22%3A2%7D%2C%7B%22id%22%3A10037%2C%22count%22%3A0%7D%5D&back_url=https%3A%2F%2Fdomainedelalle.fr%2Ffr&lang=fr","Office de tourisme Ventadour Egletons Monédières","2026-03-08T00:00:00.000Z","2026-04-11T01:07:59.929Z"
"Camping Domaine de Lallé - POD Le Pic Vert","HLOAQU019V505Y6E","Lieu","Hébergement","Hébergement locatif","Champagnac-la-Noaille","19320","19039","Corrèze","Nouvelle-Aquitaine","45.30704","2.015167","https://booking.camping.care/domaine-de-lalle?arrival=2026-03-02&departure=2026-03-16&category=camp&guests=%5B%7B%22id%22%3A10038%2C%22count%22%3A2%7D%2C%7B%22id%22%3A10037%2C%22count%22%3A0%7D%5D&back_url=https%3A%2F%2Fdomainedelalle.fr%2Ffr%2Fle-camping&lang=fr","Office de tourisme Ventadour Egletons Monédières","2026-03-08T00:00:00.000Z","2026-04-11T01:07:59.928Z"
"Chambres d'hôtes La Beulière","HLOPDL072V510BM5","Lieu","Hébergement","Hébergement locatif","Saint-Christophe-du-Jambet","72170","72273","Sarthe","Pays de la Loire","48.229677","0.048245",,"OT des Alpes Mancelles","2026-03-27T00:00:00.000Z","2026-03-28T04:48:53.619Z"
"Le Nid du Coucou - Le Foudre Talbot","HLOAQU047V50NJXW","Lieu","Hébergement","Hébergement locatif","Cocumont","47250","47068","Lot-et-Garonne","Nouvelle-Aquitaine","44.4785208","0.04400749","https://www.gites-de-france-47.com/location-vacances-Chambre-d-hotes-a-Cocumont-Lot-et-garonne-47G2402.html?&insee=47068,https://www.gites-de-france-47.com/,https://www.lenidducoucou.com/,https://www.gites-de-france-47.com/location-vacances-Chambre-d-hotes-a-Cocumont-Lot-et-garonne-47G2402.html?&insee=47068,https://www.gites-de-france-47.com/,https://www.lenidducoucou.com/","OT Val de Garonne","2026-03-05T00:00:00.000Z","2026-04-11T01:25:52.238Z"
"Chambre d'hôte à Sartrouville, accueil vélo","7561091","Lieu","Hébergement","Hébergement locatif","Sartrouville","78500","78586","Yvelines","Île-de-France","48.937434","2.191596",,"Office de Tourisme Intercommunal de Saint Germain Boucles de Seine","2026-03-02T00:00:00.000Z","2026-03-03T08:53:46.781Z"
"L'Oustal de Papé, le calme au cœur de Mirepoix","6330114","Lieu","Hébergement","Hébergement locatif","Mirepoix","09500","09194","Ariège","Occitanie","43.088531","1.873532","https://oustal-mirepoix.fr/","Agence de Développement Touristique Ariège-Pyrénées","2026-03-02T00:00:00.000Z","2026-03-03T08:53:46.782Z"
"Brasserie Ardennaise de Haybes","DEGCHA0080000370","Produit","Pratique","Dégustation","Haybes","08170","08222","Ardennes","Grand Est","49.99351","4.743832",,"Ardennes Tourisme","2026-03-04T00:00:00.000Z","2026-03-04T22:13:54.677Z"
"Intersport Draguignan","7701425","Produit,Lieu","Location,Commerce de détail,Prestataire de service","Location de matériel,Loueur de matériel","Draguignan","83300","83050","Var","Provence-Alpes-Côte d'Azur","43.527198","6.452807","https://intersport-location-draguignan.com/fr,https://www.intersport.fr/","Office de tourisme intercommunal Dracénie Provence Verdon","2026-03-03T00:00:00.000Z","2026-03-04T06:56:27.181Z"
"Véloland Cognac REVbikes","7705987","Lieu","Commerce de détail",,"Châteaubernard","16100","16089","Charente","Nouvelle-Aquitaine","45.698864","-0.340849",,"Destination Cognac","2026-03-18T00:00:00.000Z","2026-03-19T06:58:54.718Z"
"Le Soleil Couchant","7699957","Lieu","Hébergement","Hébergement locatif","Vougy","42720","42338","Loire","Auvergne-Rhône-Alpes","46.111946","4.119444","https://www.gites-de-france-loire.com/fiche-hebergement-3408.html","Gîtes de France Loire","2026-03-05T00:00:00.000Z","2026-03-06T06:55:55.930Z"
"L'Oppidum","7605681","Lieu","Hébergement","Hébergement locatif","Châteauneuf-du-Rhône","26780","26085","Drôme","Auvergne-Rhône-Alpes","44.485132","4.716278",,"Montélimar Tourisme Agglomération","2026-03-11T00:00:00.000Z","2026-03-28T07:22:18.139Z"
"Rêve de Provence -L'Oliveraie","6825367","Lieu","Hébergement","Hébergement locatif","Saint-Saturnin-lès-Apt","84490","84118","Vaucluse","Provence-Alpes-Côte d'Azur","43.944357","5.362165","https://www.revedeprovence.fr/","Office de Tourisme Intercommunal Pays d’Apt Luberon","2026-03-05T00:00:00.000Z","2026-03-06T06:55:55.928Z"
"Rêve de Provence - L'escapade","6403093","Lieu","Hébergement","Hébergement locatif","Saint-Saturnin-lès-Apt","84490","84118","Vaucluse","Provence-Alpes-Côte d'Azur","43.944357","5.362165","https://www.revedeprovence.fr/","Office de Tourisme Intercommunal Pays d’Apt Luberon","2026-03-05T00:00:00.000Z","2026-03-06T06:55:55.927Z"
"NATURALBNB","7653242","Lieu","Hébergement","Hébergement locatif","Villeurbanne","69100","69266","Rhône","Auvergne-Rhône-Alpes","45.777595","4.883193","https://www.naturalbnb.com/","Lyon Tourisme et Congrès / ONLYLYON Tourisme","2026-03-10T00:00:00.000Z","2026-03-11T06:43:12.869Z"
"Domaine Marodi - Gîte Jasmin - 2 pers","7018568","Lieu","Hébergement","Hébergement locatif","Baignes-Sainte-Radegonde","16360","16025","Charente","Nouvelle-Aquitaine","45.382021","-0.234457","https://www.domainedemarodi.fr/bnb/bnb-1-1","Office de tourisme du Sud Charente","2026-03-24T00:00:00.000Z","2026-03-25T06:57:14.260Z"
"Domaine Marodi - Gîte Lavande - 2 pers","7018580","Lieu","Hébergement","Hébergement locatif","Baignes-Sainte-Radegonde","16360","16025","Charente","Nouvelle-Aquitaine","45.382021","-0.234457","https://www.domainedemarodi.fr/bnb/bnb-2-2","Office de tourisme du Sud Charente","2026-03-24T00:00:00.000Z","2026-03-25T06:57:14.252Z"
"L'Arborescence","7273734","Lieu","Restauration,Hébergement","Restaurant,Hôtellerie","Cruseilles","74350","74096","Haute-Savoie","Auvergne-Rhône-Alpes","46.037148","6.121333","https://www.arborescence-restaurant.fr/","Office de Tourisme des Monts du Genevois","2026-03-06T00:00:00.000Z","2026-03-07T06:56:52.660Z"
"Chambres d'hôtes - Maison Garesché","7246550","Lieu","Hébergement","Hébergement locatif","Nieulle-sur-Seudre","17600","17265","Charente-Maritime","Nouvelle-Aquitaine","45.752802","-1.00269","https://maison-garesche.fr/","Office de Tourisme de l'île d'Oléron et du bassin de Marennes","2026-03-28T00:00:00.000Z","2026-03-29T05:44:31.898Z"
"Les Gîtes Beaulieu - Gîte Brouage","5762055","Lieu","Hébergement","Hébergement locatif","La Gripperie-Saint-Symphorien","17620","17184","Charente-Maritime","Nouvelle-Aquitaine","45.807915","-0.956775","https://www.gitesbeaulieu.com/","Office de Tourisme Rochefort Océan","2026-03-12T00:00:00.000Z","2026-03-13T06:57:50.388Z"
"Cosy Studio en Provence","5713203","Lieu","Hébergement","Hébergement locatif","Carpentras","84200","84031","Vaucluse","Provence-Alpes-Côte d'Azur","44.049272","5.035827",,"Office de tourisme  Ventoux Provence Tourisme","2026-03-10T00:00:00.000Z","2026-03-11T06:43:12.868Z"
"Mama Shelter Lyon","7711854","Lieu","Restauration,Hébergement","Restaurant,Hôtellerie","Lyon 7e Arrondissement","69007","69387","Rhône","Auvergne-Rhône-Alpes","45.746947","4.845225","https://fr.mamashelter.com/lyon/","Lyon Tourisme et Congrès / ONLYLYON Tourisme","2026-03-10T00:00:00.000Z","2026-03-11T06:43:12.872Z"
"La Pompette","6686824","Lieu","Hébergement","Hébergement locatif","Molières-Cavaillac","30120","30170","Gard","Occitanie","43.975357","3.574979",,"Office de Tourisme Sud Cévennes","2026-03-16T00:00:00.000Z","2026-03-17T06:56:28.629Z"
"Au Fil des Saisons - Gîte Familial - 12 pers","7493524","Lieu","Hébergement","Hébergement locatif","Les Côtes-de-Corps","38970","38132","Isère","Auvergne-Rhône-Alpes","44.833264","5.94036","https://www.gites.fr/gites_grand-gite-a-la-montagne-au-pied-des-ecrins_les-cotes-de-corps_102081.htm,http://www.au-fil-des-saisons.eu/","Matheysine Tourisme","2026-03-24T00:00:00.000Z","2026-03-25T06:57:14.249Z"
"Studio 3 | Maison Meire Studios","6966571","Lieu","Hébergement","Hébergement locatif","Cognac","16100","16102","Charente","Nouvelle-Aquitaine","45.688749","-0.319347","https://maison-meire-studios.com/","Destination Cognac","2026-03-16T00:00:00.000Z","2026-03-17T06:56:28.634Z"
"Studio 5 | Maison Meire Studios","6966593","Lieu","Hébergement","Hébergement locatif","Cognac","16100","16102","Charente","Nouvelle-Aquitaine","45.688749","-0.319347","https://maison-meire-studios.com/","Destination Cognac","2026-03-16T00:00:00.000Z","2026-03-17T06:56:28.634Z"
"Studio 2 | Maison Meire Studios","6966554","Lieu","Hébergement","Hébergement locatif","Cognac","16100","16102","Charente","Nouvelle-Aquitaine","45.688749","-0.319347","https://maison-meire-studios.com/","Destination Cognac","2026-03-16T00:00:00.000Z","2026-03-17T06:56:28.626Z"
"Studio 1 | Maison Meire Studios","6966522","Lieu","Hébergement","Hébergement locatif","Cognac","16100","16102","Charente","Nouvelle-Aquitaine","45.688749","-0.319347","https://maison-meire-studios.com/","Destination Cognac","2026-03-16T00:00:00.000Z","2026-03-17T06:56:28.627Z"
"QG du Cycliste","127116","Lieu","Restauration","Restaurant","Montreuil-sur-Mer","62170","62588","Pas-de-Calais","Hauts-de-France","50.466251","1.768931",,"Maison du Tourisme et du patrimoine de Montreuil-sur-Mer","2026-03-11T00:00:00.000Z","2026-03-16T08:56:54.060Z"
"QG du Cycliste","127115","Lieu","Commerce de détail",,"Montreuil-sur-Mer","62170","62588","Pas-de-Calais","Hauts-de-France","50.466251","1.768931",,"Maison du Tourisme et du patrimoine de Montreuil-sur-Mer","2026-03-10T00:00:00.000Z","2026-03-16T08:56:54.060Z"
"Les Gîtes Beaulieu - Gîte Oléron","7221718","Lieu","Hébergement","Hébergement locatif","La Gripperie-Saint-Symphorien","17620","17184","Charente-Maritime","Nouvelle-Aquitaine","45.807402","-0.95704","https://www.gitesbeaulieu.com/","Office de Tourisme Rochefort Océan","2026-03-12T00:00:00.000Z","2026-03-13T06:57:50.383Z"
"Les Gîtes Beaulieu - Gîte Aix","7190993","Lieu","Hébergement","Hébergement locatif","La Gripperie-Saint-Symphorien","17620","17184","Charente-Maritime","Nouvelle-Aquitaine","45.807402","-0.95704","https://www.gitesbeaulieu.com/","Office de Tourisme Rochefort Océan","2026-03-12T00:00:00.000Z","2026-03-13T06:57:50.389Z"
"Hôtel La Ferme","7377721","Lieu","Hébergement","Hôtellerie","La Clusaz","74220","74080","Haute-Savoie","Auvergne-Rhône-Alpes","45.902586","6.425629",,"Office de Tourisme de La Clusaz","2026-03-15T00:00:00.000Z","2026-03-16T06:58:51.086Z"
"Atelier Calligraphie et enluminure","6174788","Produit","Pratique",,"Trizay","17250","17453","Charente-Maritime","Nouvelle-Aquitaine","45.881866","-0.913734","https://www.helloasso.com/associations/abbaye-de-trizay-comptoir-du-tourisme-c-ur-de-saintonge,https://www.abbayedetrizay17.fr/","Communauté de communes Coeur de Saintonge","2026-04-02T00:00:00.000Z","2026-04-08T07:26:15.682Z"
"Studio 6 | Maison Meire Studios","6966598","Lieu","Hébergement","Hébergement locatif","Cognac","16100","16102","Charente","Nouvelle-Aquitaine","45.688749","-0.319347","https://maison-meire-studios.com/","Destination Cognac","2026-03-16T00:00:00.000Z","2026-03-17T06:56:28.634Z"
"Studio 4 | Maison Meire Studios","6966578","Lieu","Hébergement","Hébergement locatif","Cognac","16100","16102","Charente","Nouvelle-Aquitaine","45.688749","-0.319347","https://maison-meire-studios.com/","Destination Cognac","2026-03-16T00:00:00.000Z","2026-03-17T06:56:28.632Z"
"Distillerie Paul Devoille","PCUBFC000V53SNYV","Lieu","Fournisseur de dégustation,Site culturel","Patrimoine industriel, artisanal, rural, agricole et technique","Fougerolles-Saint-Valbert","70220","70245","Haute-Saône","Bourgogne-Franche-Comté","47.8871903","6.4110705","https://www.instagram.com/distillerie_paul_devoille/,https://www.facebook.com/DistillerieDevoille/,https://www.devoille.com/","DESTINATION VOSGES DU SUD (COORDINATION DECIBELLES DATA)","2026-03-25T00:00:00.000Z","2026-04-08T00:03:37.950Z"
"Cycles 963","7716377","Lieu","Commerce de détail",,"Vence","06140","06157","Alpes-Maritimes","Provence-Alpes-Côte d'Azur","43.725033","7.106247","https://www.cycles963.fr/","Office de Tourisme Métropolitain Nice Côte d'Azur","2026-03-13T00:00:00.000Z","2026-03-14T06:58:37.002Z"
"Site VTT FFC Arêches-Beaufort.","203772","Lieu,Itinéraire touristique","Site sportif, récréatif et de loisirs,Itinéraire cyclable",,"Beaufort","73270","73034","Savoie","Auvergne-Rhône-Alpes","45.686516","6.567335","http://www.areches-beaufort.com/","Office de Tourisme d'Arêches-Beaufort","2026-03-19T00:00:00.000Z","2026-03-20T06:48:32.834Z"
"La Cabane des Fichettes","HLOCEN045V507EE0","Lieu","Hébergement","Hébergement collectif,Hébergement locatif","Sandillon","45640","45300","Loiret","Centre-Val de Loire","47.8513808","2.02512248","https://www.airbnb.fr/rooms/50748536","OT VAL DE LOIRE ET FORET D'ORLEANS","2026-03-25T00:00:00.000Z","2026-03-26T05:03:43.470Z"
"Atelier dégustation au Château Pesquié","4892877","Produit","Pratique",,"Mormoiron","84570","84082","Vaucluse","Provence-Alpes-Côte d'Azur","44.067669","5.188028","https://famillechaudiere.com/visites-activites/","Office de Tourisme Intercommunal Ventoux Sud","2026-03-17T00:00:00.000Z","2026-03-18T06:56:22.777Z"
"Musée vivant du Cheval - Grandes Écuries du Château de Chantilly","PCUPIC1600000029","Lieu","Site culturel","Musée","Chantilly","60500","60141","Oise","Hauts-de-France","49.1937216","2.48039531","https://chateaudechantilly.fr/grandes-ecuries/","Chantilly-Senlis Tourisme","2002-08-28T00:00:00.000Z","2026-03-30T22:11:35.799Z"
"L'Historial de la Grande Guerre","PCUPIC0800010642","Lieu","Site culturel","Musée","Péronne","80201","80620","Somme","Hauts-de-France","49.9291277","2.93243278","http://www.historial.fr/","ADRT80","2002-06-21T00:00:00.000Z","2026-03-26T23:12:14.144Z"
"Abbaye et Jardins de Valloires","PCUPIC0800010664","Lieu","Site culturel","Site religieux","Argoules","80120","80025","Somme","Hauts-de-France","50.3491023","1.81996975","http://www.jardinsdevalloires.fr/,https://www.baiedesomme-ponthieumarquenterre.fr/spectacle-picardie.php","ADRT80","2002-06-25T00:00:00.000Z","2026-03-13T23:14:58.538Z"
"Site Archéologique d'Escolives","PCUBOU0890000055","Lieu","Site culturel","Site archéologique","Escolives-Sainte-Camille","89290","89155","Yonne","Bourgogne-Franche-Comté","47.7216359","3.6061353","http://villascoliva.fr/,https://www.facebook.com/profile.php?id=100023719413742,https://escolivesstecamille.fr/","Yonne Attractivité","2026-02-07T00:00:00.000Z","2026-02-11T01:11:06.607Z"
"La Maison du Vélo","ASCBOU0890000687","Produit,Lieu","Location,Pratique,Prestataire d'activité,Site sportif, récréatif et de loisirs",,"Auxerre","89000","89024","Yonne","Bourgogne-Franche-Comté","47.7930955","3.58232111","https://www.maison-velo.fr/,https://www.velibourgogne.fr/,https://www.facebook.com/LeBatardeau/,https://www.maison-velo.fr/,https://www.velibourgogne.fr/","Yonne Attractivité","2026-03-04T00:00:00.000Z","2026-03-05T01:08:13.927Z"
"Musée Franco-Australien","PCUPIC0800010612","Lieu","Site culturel","Musée","Villers-Bretonneux","80800","80799","Somme","Hauts-de-France","49.8663045","2.51734092","http://www.museeaustralien.com/","ADRT80","2002-06-19T00:00:00.000Z","2026-03-30T22:11:35.799Z"
"Abbaye Royale du Moncel","PCUPIC1600000040","Lieu","Site culturel","Site religieux","Pontpoint","60700","60508","Oise","Hauts-de-France","49.3017108","2.61269265","http://www.abbayedumoncel.fr/","Office de Tourisme des Pays d'Oise et d'Halatte","2002-08-28T00:00:00.000Z","2026-03-26T23:12:14.143Z"
"Musée Lombart","PCUPIC080FS0001A","Lieu","Site culturel","Musée","Doullens","80600","80253","Somme","Hauts-de-France","50.154794","2.343718","https://musee-lombart.jimdosite.com/,https://www.tourisme-territoirenordpicardie.com/visiter/mus%C3%A9e-lombart-de-doullens/","ADRT80","2005-01-17T00:00:00.000Z","2025-10-02T15:42:22.311Z"
"Château de Chantilly","PCUPIC1600000020","Lieu","Site culturel","Bâtiment civil remarquable","Chantilly","60500","60141","Oise","Hauts-de-France","49.1940167","2.48552799","https://chateaudechantilly.fr/","Chantilly-Senlis Tourisme","2002-08-28T00:00:00.000Z","2026-03-30T22:11:35.799Z"
"Vignoble Pestoury","DEGAQU033FS0002L","Lieu","Fournisseur de dégustation","Cave ou caveau,Producteur","Yvrac","33370","33554","Gironde","Nouvelle-Aquitaine","44.8955465","-0.4583868","https://www.vignoble-pestoury.com/","OT de l'Entre-deux-Mers","2026-02-26T00:00:00.000Z","2026-04-11T01:49:52.395Z"
"Château Fourcas Hosten","DEGAQU033FS00024","Lieu","Fournisseur de dégustation","Producteur","Listrac-Médoc","33480","33248","Gironde","Nouvelle-Aquitaine","45.0759027","-0.7899355","https://www.fourcas-hosten.com/organiser-une-visite/,https://www.fourcas-hosten.com/","OT Médoc Plein Sud","2026-03-31T00:00:00.000Z","2026-04-11T01:49:52.389Z"
"Le Familistère de Guise","PCUPIC0020010344","Lieu","Site culturel","Musée","Guise","02120","02361","Aisne","Hauts-de-France","49.904295","3.6263302","https://www.familistere.com/fr","OT du Pays de Thiérache","2002-07-03T00:00:00.000Z","2026-03-26T23:12:14.143Z"
"La Chanteracoise - Biscottes et Biscuits","DEGAQU024FS0007V","Lieu","Fournisseur de dégustation","Producteur","Saint-Germain-du-Salembre","24190","24418","Dordogne","Nouvelle-Aquitaine","45.1391785","0.45438816","https://www.la-chanteracoise.fr/","Vallée de l'Isle en Périgord","2026-02-22T00:00:00.000Z","2026-04-11T01:49:52.412Z"
"Ferme et Musée du Pruneau","DEGAQU047FS00039","Lieu","Fournisseur de dégustation","Producteur","Lafitte-sur-Lot","47320","47127","Lot-et-Garonne","Nouvelle-Aquitaine","44.381966","0.450628","https://reservation.elloha.com/Search/Index/0c23f17b-139b-436b-9acb-9fd837c678bc?idoi=4c8c6c9a-3d65-4981-8ab0-da68772b5a4f&culture=fr-FR&searchFirstAvailableDates=1,http://www.musee-du-pruneau.com/","OT Val de Garonne","2026-03-25T00:00:00.000Z","2026-04-11T01:49:52.417Z"
"GROTTE DE LA FILEUSE DE VERRE","LOILAR034V50XKY9","Lieu","Site naturel","Grotte, gouffre, aven, caverne, carrière","Courniou","34220","34086","Hérault","Occitanie","43.4738918","2.7132587","http://www.lafileusedeverre.fr/,https://cart.guidap.net/v1/iframe.html?g-token=TNO2dxikaZnlj1p8SECwDez7sFMA6fW0KgvX&g-lang=fr&g-currency=EUR&g-hide-close=&g-fn%5B0%5D=openActivities&g-path=/cart/activities/undefined","34 - OT DU MINERVOIS AU CAROUX EN HAUT LANGUEDOC","2026-04-04T00:00:00.000Z","2026-04-08T02:17:35.881Z"
"Historial de la Grande Guerre - Thiepval","PCUPIC080FS00012","Lieu","Site culturel","Musée","Thiepval","80300","80753","Somme","Hauts-de-France","50.0524714","2.68817008","http://www.historial.fr/","ADRT80","2004-09-09T00:00:00.000Z","2026-01-10T23:12:11.150Z"
"Carmel - Maison du patrimoine","PCUPIC080V500JMB","Lieu","Site culturel","Site religieux","Abbeville","80100","80001","Somme","Hauts-de-France","50.1087978","1.83249382",,"OT DE LA BAIE DE SOMME","2014-07-18T00:00:00.000Z","2026-01-10T23:12:11.150Z"
"Musée La Maison de Marie-Jeanne","PCUPIC002FS00033","Lieu","Site culturel","Musée","Alaincourt","02240","02009","Aisne","Hauts-de-France","49.765988","3.375738","https://la-maison-de-marie-jeanne.fr/","OT du Saint-Quentinois","2008-07-09T00:00:00.000Z","2026-03-26T23:12:14.143Z"
"Musée des Arts et Traditions populaires","PCUPIC1600000056","Lieu","Site culturel","Musée","Saint-Germer-de-Fly","60850","60577","Oise","Hauts-de-France","49.4429016","1.78110161","http://www.ot-paysdebray.fr/","Office de Tourisme du Pays de Bray","2002-08-28T00:00:00.000Z","2026-04-10T22:15:47.847Z"
"CYCLOLOC - PALAVAS EN VÉLO","ASCLAR034V50RFAD","Produit","Pratique","Pratique libre","Palavas-les-Flots","34250","34192","Hérault","Occitanie","43.53077","3.939894","https://www.cycloloc-palavas.fr/,https://www.herault-tourisme.com/,http://www.cycloloc-palavas.fr/","34 - OT PALAVAS-LES-FLOTS","2026-01-05T00:00:00.000Z","2026-01-06T02:50:59.532Z"
"Maison de la Baie de Somme","PCUPIC080FS0001M","Lieu","Site culturel","Musée","Lanchères","80230","80464","Somme","Hauts-de-France","50.1978908","1.55237669","http://www.maisondelabaiedesomme.com/","ADRT80","2005-12-23T00:00:00.000Z","2026-03-26T23:12:14.141Z"
"Oxygen Cycles - Location de vélos","ASCAQU040FS0006R","Produit,Lieu","Location,Prestataire d'activité,Site sportif, récréatif et de loisirs,Service pratique","Location de matériel","Vielle-Saint-Girons","40560","40326","Landes","Nouvelle-Aquitaine","43.951418","-1.3521234","https://www.oxygencycles.net/","Côte Landes Nature Tourisme","2026-04-01T00:00:00.000Z","2026-04-11T02:13:11.835Z"
"Zoo de Labenne","LOIAQU040016JXC7","Lieu","Site sportif, récréatif et de loisirs","Zoo - parc animalier","Labenne","40530","40133","Landes","Nouvelle-Aquitaine","43.5898933","-1.4507773","https://www.zoo-labenne.com/","OT Labenne","2026-03-19T00:00:00.000Z","2026-04-11T02:21:16.881Z"
"Dingovélos","ASCAQU033FS0009S","Produit,Lieu","Location,Pratique,Prestataire d'activité,Site sportif, récréatif et de loisirs,Service pratique","Location de matériel,Accompagnement","Arcachon","33120","33009","Gironde","Nouvelle-Aquitaine","44.6630758","-1.1671028","https://location-velo-arcachon.notresphere.com/,https://dingovelos.bike/","OT Arcachon","2026-04-10T00:00:00.000Z","2026-04-11T02:13:11.834Z"
"Biscuits et Biscottes - La Chantéracoise","DEGAQU024V507I6S","Lieu","Commerce de détail,Fournisseur de dégustation","Boutique, commerce de proximité,Producteur","Saint-Léon-sur-l'Isle","24110","24442","Dordogne","Nouvelle-Aquitaine","45.1252826","0.4950156","https://www.la-chanteracoise.fr/","Vallée de l'Isle en Périgord","2026-01-01T00:00:00.000Z","2026-04-11T01:49:52.417Z"
"Ferme et Musée du Pruneau","LOIAQU047FS0003F","Lieu","Site sportif, récréatif et de loisirs,Service pratique","Ferme pédagogique,Aire de pique-nique","Lafitte-sur-Lot","47320","47127","Lot-et-Garonne","Nouvelle-Aquitaine","44.3816739","0.4503977","https://tinyurl.com/2bhh923d,http://www.musee-du-pruneau.com/","OT Val de Garonne","2026-03-25T00:00:00.000Z","2026-04-11T02:21:16.879Z"
"RESTAURANT ORATA","RESLAR034FS0020N","Lieu","Restauration","Restaurant","La Grande-Motte","34280","34344","Hérault","Occitanie","43.5559972","4.09530401","https://www.thalasso-grandemotte.com/","34 - OT LA GRANDE MOTTE","2026-04-01T00:00:00.000Z","2026-04-08T02:24:18.227Z"
"Parc du Château de Compiègne","PNAPIC060FS0000G","Lieu","Site culturel","Parc et jardin","Compiègne","60200","60159","Oise","Hauts-de-France","49.4178415","2.83129692","https://chateaudecompiegne.fr/","Compiègne - Pierrefonds Tourisme","2005-09-19T00:00:00.000Z","2026-01-31T03:55:57.696Z"
"Cité Souterraine de Naours","PCUPIC0800010624","Lieu","Site culturel","Site archéologique","Naours","80260","80584","Somme","Hauts-de-France","50.033989","2.280414","http://www.citesouterrainedenaours.fr/","ADRT80","2002-06-19T00:00:00.000Z","2026-01-10T23:12:11.151Z"
"MUSÉE ARCHÉOLOGIQUE D'AMBRUSSUM","PCULAR0340000109","Lieu","Site culturel","Musée","Villetelle","34400","34340","Hérault","Occitanie","43.7200479","4.14781711","http://www.ambrussum.fr/","34 - OT PAYS DE LUNEL","2026-04-06T00:00:00.000Z","2026-04-08T02:25:44.710Z"
"TEMPLE BOUDDHISTE LERAB LING","PCULAR034FS0004D","Lieu","Site culturel","Site religieux","Roqueredonde","34650","34233","Hérault","Occitanie","43.8021759","3.23636411","https://lerabling.org/lang-fr/,https://lerabling.org/lang-fr/visites-du-temple/a-propos-des-visites","34 - OT LODEVOIS ET LARZAC","2026-04-06T00:00:00.000Z","2026-04-08T02:25:44.711Z"
"MUSÉE DE LODÈVE","PCULAR0340000055","Lieu","Site culturel","Musée","Lodève","34700","34142","Hérault","Occitanie","43.7318265","3.31992028","http://www.museedelodeve.fr/,http://www.museedelodeve.fr/","34 - OT LODEVOIS ET LARZAC","2026-04-06T00:00:00.000Z","2026-04-08T02:25:44.712Z"
"CHATEAU ABBAYE DE CASSAN","PCULAR0340000026","Lieu","Site culturel","Site religieux","Roujan","34320","34237","Hérault","Occitanie","43.508945","3.287391","https://www.chateau-cassan.com/boutique/,https://www.chateau-cassan.com/","34 - OT AVANT-MONTS","2026-04-06T00:00:00.000Z","2026-04-08T02:25:44.710Z"
"RÊVE DE VÉLO LUNEL","ASCLAR034V50MNJO","Produit,Lieu","Pratique,Transport,Prestataire de service","Pratique libre,Compagnie de taxis,Compagnie de taxis","Lunel","34400","34145","Hérault","Occitanie","43.6809522","4.1486174","https://revedevelo.lokki.rent/,http://www.revedevelo.com/","34 - OT PAYS DE LUNEL","2026-04-01T00:00:00.000Z","2026-04-08T02:21:34.776Z"
"Maison des Marais","PNAPIC080V50ENSZ","Lieu","Site naturel",,"Longpré-les-Corps-Saints","80510","80488","Somme","Hauts-de-France","50.0130656","1.9946777","https://www.tourisme-baiedesomme.fr/","OT DE LA BAIE DE SOMME","2017-05-19T00:00:00.000Z","2026-01-10T03:42:37.548Z"
"Château de Pierrefonds - Centre des monuments nationaux","PCUPIC1600000067","Lieu","Site culturel","Bâtiment civil remarquable","Pierrefonds","60350","60491","Oise","Hauts-de-France","49.3459837","2.97905445","http://www.pierrefonds.monuments-nationaux.fr/","Compiègne - Pierrefonds Tourisme","2002-08-28T00:00:00.000Z","2026-04-10T22:15:47.848Z"
"Abbatiale de Saint-Germer-de-Fly","PCUPIC1600000060","Lieu","Site culturel","Site religieux","Saint-Germer-de-Fly","60850","60577","Oise","Hauts-de-France","49.4434205","1.78091942","http://www.ot-paysdebray.fr/","Office de Tourisme du Pays de Bray","2002-08-28T00:00:00.000Z","2026-04-10T22:15:47.847Z"
"Cité du Vin","PCUAQU033V509B4W","Lieu","Site culturel","Centre d'interprétation","Bordeaux","33300","33063","Gironde","Nouvelle-Aquitaine","44.8623912","-0.5505917","https://www.laciteduvin.com/fr","OT Bordeaux Métropole","2026-03-31T00:00:00.000Z","2026-04-01T01:49:34.597Z"
"Ferme et Musée du Pruneau","PCUAQU047FS0000U","Lieu","Site culturel","Musée","Lafitte-sur-Lot","47320","47127","Lot-et-Garonne","Nouvelle-Aquitaine","44.3816739","0.4503977","https://reservation.elloha.com/Search/Index/0c23f17b-139b-436b-9acb-9fd837c678bc?idoi=4c8c6c9a-3d65-4981-8ab0-da68772b5a4f&culture=fr-FR&searchFirstAvailableDates=1,http://www.musee-du-pruneau.com/","OT Val de Garonne","2026-03-31T00:00:00.000Z","2026-04-01T01:49:34.596Z"
"Location vélos Decize","ASCBOU058107877","Produit,Lieu","Location,Pratique,Prestataire d'activité,Site sportif, récréatif et de loisirs",,"Decize","58300","58095","Nièvre","Bourgogne-Franche-Comté","46.8270561","3.4656343","http://www.gites-du-gue-du-loup.fr/,http://www.locationvelosdecize.fr/","Nièvre Attractive","2026-02-20T00:00:00.000Z","2026-04-08T00:06:41.570Z"
"Abbaye Saint-Germain","PCUBOU0890000032","Lieu","Site culturel","Site religieux","Auxerre","89000","89024","Yonne","Bourgogne-Franche-Comté","47.8007902","3.5721658","https://www.abbayesaintgermain.fr/,https://abbayesaintgermain.tickeasy.com/fr-FR/accueil,https://www.abbayesaintgermain.fr/","Yonne Attractivité","2026-03-19T00:00:00.000Z","2026-03-20T01:10:53.065Z"
"Musée de la bière","740000018","Lieu","Site culturel","Musée","Stenay","55700","55502","Meuse","Grand Est","49.4888988662294","5.18665653425444","http://www.museedelabiere.com/","OT MONTS ET VALLEES DE MEUSE","2026-01-12T00:00:00.000Z","2026-01-13T07:23:35.027Z"
"JOE BIKE - Pédebert","ASCAQU040FS00085","Produit,Lieu","Location,Pratique,Prestataire d'activité,Site sportif, récréatif et de loisirs,Service pratique","Location de matériel,Accompagnement","Soorts-Hossegor","40150","40304","Landes","Nouvelle-Aquitaine","43.6718959","-1.3897863","https://www.joebike.fr/landes/location-velos-hossegor/?utm_source=fiche-magasin-hossegor-pedebert&utm_medium=referral&utm_campaign=ot-hossegor,https://location-velo.veloresa1.com/joebikelandes/","OT Hossegor","2026-01-01T00:00:00.000Z","2026-04-11T02:13:11.794Z"
"PORT DE PLAISANCE VALRAS-PLAGE","LOILAR034FS000QW","Lieu","Site sportif, récréatif et de loisirs","Port de plaisance","Valras-Plage","34350","34324","Hérault","Occitanie","43.2485981","3.2961482","https://www.beziers-mediterranee.com/decouvrez/les-ports-de-beziers-mediterranee/","34 - OT BEZIERS MEDITERRANEE","2025-12-03T00:00:00.000Z","2025-12-05T03:01:47.179Z"
"Maison de la Poterie","PCUAQU033FS0016N","Lieu","Site culturel","Musée","Sadirac","33670","33363","Gironde","Nouvelle-Aquitaine","44.7819943","-0.4114522","https://www.mairie-sadirac.fr/maison-de-la-poterie-presentation-du-fond-archeologique/","OT de l'Entre-deux-Mers","2026-03-05T00:00:00.000Z","2026-03-06T02:55:15.095Z"
"Le Garage à Vélos","ASCAQU033FS00164","Produit,Lieu","Location,Prestataire d'activité,Site sportif, récréatif et de loisirs,Service pratique","Location de matériel","Hourtin","33990","33203","Gironde","Nouvelle-Aquitaine","45.1808275","-1.0835311","https://www.legarageavelo.com/,https://le-garage-a-velos.lokki.rent/","OT Médoc Atlantique","2026-04-01T00:00:00.000Z","2026-04-11T02:13:11.814Z"
"Brooks Bikes","ASCAQU040014XAEE","Produit,Lieu","Location,Prestataire d'activité,Site sportif, récréatif et de loisirs,Service pratique","Location de matériel","Saint-Julien-en-Born","40170","40266","Landes","Nouvelle-Aquitaine","44.0676639","-1.2291078","https://www.brooks-bikes.com/tarifs-location/,https://www.brooks-bikes.com/","Côte Landes Nature Tourisme","2026-03-05T00:00:00.000Z","2026-04-11T02:13:11.801Z"
"Office de tourisme de Val Cenis Termignon","476612","Lieu","Commerce de détail,Service d'information touristique","Office de tourisme","Val-Cenis","73500","73290","Savoie","Auvergne-Rhône-Alpes","45.277","6.8171","https://www.valcenis.com/","Haute Maurienne Vanoise Tourisme","2026-02-13T00:00:00.000Z","2026-02-14T08:15:10.617Z"
"Best Western Plus Hôtel La Marina","639121","Lieu","Restauration,Hébergement","Restaurant,Hôtellerie","Saint-Raphaël","83700","83118","Var","Provence-Alpes-Côte d'Azur","43.413185","6.781504","http://www.hotel-lamarina.fr/","Office de tourisme de Saint-Raphaël","2025-10-15T00:00:00.000Z","2026-01-01T06:52:10.386Z"
"Q7 Lodge Lyon","318180","Lieu","Hébergement","Hébergement collectif","Lyon 7e Arrondissement","69007","69387","Rhône","Auvergne-Rhône-Alpes","45.738059","4.832045","https://www.q7-lodge.com/","Lyon Tourisme et Congrès / ONLYLYON Tourisme","2025-04-07T00:00:00.000Z","2026-02-06T06:56:19.545Z"
"Le Musée de l'eau","162584","Lieu","Site culturel","Musée","Pont-en-Royans","38680","38319","Isère","Auvergne-Rhône-Alpes","45.060685","5.344175","https://musee-eau.fr/","Office de Tourisme de Saint-Marcellin Vercors Isère","2026-01-28T00:00:00.000Z","2026-01-29T06:59:55.698Z"
"Office de tourisme Forez-Est - Bureau d'information touristique de Feurs","456877","Lieu","Commerce de détail,Service d'information touristique","Office de tourisme","Feurs","42110","42094","Loire","Auvergne-Rhône-Alpes","45.744254","4.224834","https://www.rendezvousenforez.com/","Office de Tourisme Forez Est","2026-03-05T00:00:00.000Z","2026-03-06T06:55:55.937Z"
"Domaine du Val de Sault","4611800","Lieu","Restauration,Hébergement","Restaurant,Hôtellerie","Sault","84390","84123","Vaucluse","Provence-Alpes-Côte d'Azur","44.105504","5.416188","https://www.valdesault.com/","Office de Tourisme Intercommunal Ventoux Sud","2026-02-10T00:00:00.000Z","2026-02-11T08:55:27.872Z"
"Hôtel Restaurant Cazaudehore","4785344","Lieu","Restauration,Hébergement","Restaurant,Hôtellerie","Saint-Germain-en-Laye","78100","78551","Yvelines","Île-de-France","48.913749","2.083233","http://www.cazaudehore.fr/fr/index.php","Office de Tourisme Intercommunal de Saint Germain Boucles de Seine","2024-10-11T00:00:00.000Z","2026-02-06T06:56:19.584Z"
"Office de Tourisme d'Orange","668354","Lieu","Commerce de détail,Service d'information touristique","Office de tourisme","Orange","84100","84087","Vaucluse","Provence-Alpes-Côte d'Azur","44.1366","4.804333","http://www.poptourisme.fr/","Pays d’Orange en Provence Tourisme","2025-07-28T00:00:00.000Z","2026-01-23T06:54:32.167Z"
"Mercure La Présidence","HOTNOR076FS0026H","Lieu","Hébergement","Hôtellerie","Dieppe","76200","76217","Seine-Maritime","Normandie","49.9254064","1.0715847","https://all.accor.com/hotel/7014/index.fr.shtml,https://www.seine-maritime-tourisme.com/diffusio/fr/je-choisis/un-hebergement/hotel/dieppe/mercure-la-presidence_TFOHOTNOR076FS0026H.php","Office de Tourisme de Dieppe-Normandie","2026-04-06T00:00:00.000Z","2026-04-08T04:47:36.456Z"
"Office de tourisme et centrale de réservation d'Orelle","465719","Lieu","Commerce de détail,Service d'information touristique","Office de tourisme","Orelle","73140","73194","Savoie","Auvergne-Rhône-Alpes","45.20788","6.546528","https://reservation.orelle.net/","Office de tourisme d'Orelle","2026-04-02T00:00:00.000Z","2026-04-08T07:26:15.702Z"
"Office de tourisme Pays d'Apt Luberon - Bureau d'Apt","850953","Lieu","Commerce de détail,Service d'information touristique","Office de tourisme","Apt","84400","84003","Vaucluse","Provence-Alpes-Côte d'Azur","43.881","5.385","https://www.luberon-apt.fr/","Office de Tourisme Intercommunal Pays d’Apt Luberon","2025-10-06T00:00:00.000Z","2026-03-05T06:53:26.667Z"
"Hôtel Le Gardon","5159553","Lieu","Restauration,Hébergement","Restaurant,Hôtellerie","Collias","30210","30085","Gard","Occitanie","43.960252","4.467369","https://www.hotel-le-gardon.com/","Destination Pays d'Uzès Pont du Gard","2026-01-14T00:00:00.000Z","2026-01-24T06:53:10.691Z"
"Hôtel Base Camp Lodge","205275","Lieu","Restauration,Hébergement","Restaurant,Hôtellerie","Albertville","73200","73011","Savoie","Auvergne-Rhône-Alpes","45.657788","6.377349","https://www.basecamp-albertville.com/fr/","Maison du Tourisme du Pays d'Albertville","2025-12-30T00:00:00.000Z","2026-02-06T06:56:19.566Z"
"FunTrip","4989269","Lieu","Prestataire d'activité,Commerce de détail",,"Tourrettes-sur-Loup","06140","06148","Alpes-Maritimes","Provence-Alpes-Côte d'Azur","43.718792","6.992404","http://funtrip-canyoning.fr/","Office de tourisme intercommunal de la CASA","2026-03-13T00:00:00.000Z","2026-03-14T06:58:37.003Z"
"Camping Intercommunal Les Royères du Prieuré**","2998074","Lieu","Hébergement","Hôtellerie de plein air","Maubec","84660","84071","Vaucluse","Provence-Alpes-Côte d'Azur","43.840394","5.132526","http://www.campingmaubec-luberon.com/","Destination Luberon Monts de Vaucluse","2026-01-21T00:00:00.000Z","2026-01-22T06:51:34.483Z"
"Najeti Golf Hôtel de Valescure","639123","Lieu","Restauration,Hébergement","Restaurant,Hôtellerie","Saint-Raphaël","83700","83118","Var","Provence-Alpes-Côte d'Azur","43.456455","6.790388","http://www.valescure.najeti.fr/","Office de tourisme de Saint-Raphaël","2026-03-13T00:00:00.000Z","2026-03-14T06:58:37.011Z"
"Le Renaissance","4671315","Lieu","Restauration,Hébergement","Restaurant,Hôtellerie","Aurillac","15000","15014","Cantal","Auvergne-Rhône-Alpes","44.927878","2.442859","http://www.hotel-le-renaissance.fr/","Office de Tourisme du Pays d'Aurillac","2026-01-15T00:00:00.000Z","2026-01-16T06:50:53.193Z"
"Family's Camping Le Savoy","150819","Lieu","Hébergement","Hôtellerie de plein air","Challes-les-Eaux","73190","73064","Savoie","Auvergne-Rhône-Alpes","45.551984","5.984716","https://www.family-camping-le-savoy.com/","Grand Chambéry Alpes Tourisme","2026-03-11T00:00:00.000Z","2026-03-12T07:14:49.471Z"
"Bureau d'Information Touristique de Lourmarin","5092361","Lieu","Commerce de détail,Service d'information touristique","Office de tourisme","Lourmarin","84160","84068","Vaucluse","Provence-Alpes-Côte d'Azur","43.765576","5.362901","https://www.destinationluberon.com/","Destination Luberon Monts de Vaucluse","2025-03-14T00:00:00.000Z","2026-03-04T06:56:27.184Z"
"Office de Tourisme  Nice Côte d'Azur - Bureau de Vence","4745687","Lieu","Commerce de détail,Service d'information touristique","Office de tourisme","Vence","06140","06157","Alpes-Maritimes","Provence-Alpes-Côte d'Azur","43.722198","7.11093","https://www.explorenicecotedazur.com/vence/","Office de Tourisme Métropolitain Nice Côte d'Azur","2026-03-27T00:00:00.000Z","2026-03-28T07:22:18.127Z"
"Restaurant In jungle","108742","Lieu","Restauration",,"Beauvallon","69700","69179","Rhône","Auvergne-Rhône-Alpes","45.618713","4.711139","https://www.injungle.fr/hotel","Destination Monts du Lyonnais","2026-03-03T00:00:00.000Z","2026-03-04T06:56:27.184Z"
"Office de Tourisme de Pertuis","4612062","Lieu","Commerce de détail,Service d'information touristique","Office de tourisme","Pertuis","84120","84089","Vaucluse","Provence-Alpes-Côte d'Azur","43.696267","5.502701","https://www.tourisme-pertuis.fr/","Office de Tourisme de Pertuis","2025-01-24T00:00:00.000Z","2026-01-20T06:48:56.258Z"
"Hôtel du Palais de L'Isle","157717","Lieu","Hébergement","Hôtellerie","Annecy","74000","74010","Haute-Savoie","Auvergne-Rhône-Alpes","45.898162","6.127421","http://www.palaisannecy.com/","Office de Tourisme du Lac d'Annecy","2025-08-21T00:00:00.000Z","2026-02-06T06:56:19.547Z"
"Hôtel La Bégude Saint-Pierre","5161191","Lieu","Restauration,Hébergement","Restaurant,Hôtellerie","Vers-Pont-du-Gard","30210","30346","Gard","Occitanie","43.958186","4.52071","https://www.secure-hotel-booking.com/smart/La-Begude-Saint-Pierre/2YZ1/fr,https://www.hotel-pontdugard.com/fr-fr/","Destination Pays d'Uzès Pont du Gard","2026-01-23T00:00:00.000Z","2026-01-24T06:53:10.693Z"
"Hôtel La Petite Bohème","898071","Lieu","Hébergement","Hôtellerie","Le Lavandou","83980","83070","Var","Provence-Alpes-Côte d'Azur","43.139706","6.369888","https://www.hotel-la-petite-boheme.fr/","Office de Tourisme Le Lavandou","2026-02-15T00:00:00.000Z","2026-02-16T08:20:12.703Z"
"The Originals Hotel du Mont Sion","110723","Lieu","Hébergement","Hôtellerie","Saint-Blaise","74350","74228","Haute-Savoie","Auvergne-Rhône-Alpes","46.073566","6.084527","http://www.hotel-rey.com/","Office de Tourisme des Monts du Genevois","2025-10-06T00:00:00.000Z","2026-01-02T06:47:08.859Z"
"Office de Tourisme de Cergy-Pontoise","4856940","Lieu","Commerce de détail,Service d'information touristique","Office de tourisme","Pontoise","95300","95500","Val-d'Oise","Île-de-France","49.046882","2.100169",,"Cergy  Pontoise Tourisme,Office de Tourisme de Cergy-Pontoise - Porte du Vexin","2025-08-27T00:00:00.000Z","2026-01-30T06:57:59.332Z"
"Le Phénix Hôtel","214871","Lieu","Hébergement","Hôtellerie","Lyon 5e Arrondissement","69005","69385","Rhône","Auvergne-Rhône-Alpes","45.766686","4.828177","http://hotel-phenix-lyon.fr/","Lyon Tourisme et Congrès / ONLYLYON Tourisme","2025-11-04T00:00:00.000Z","2026-01-06T07:05:11.849Z"
"Le Dahu","88197","Lieu","Restauration",,"Parigny","42120","42166","Loire","Auvergne-Rhône-Alpes","45.99326","4.10587","http://www.hotel-restaurant-ledahu.fr/","Roannais Tourisme","2026-03-13T00:00:00.000Z","2026-03-14T06:58:37.006Z"
"Bureau d’Information Touristique de Bougival","4804338","Lieu","Commerce de détail,Service d'information touristique","Office de tourisme","Bougival","78380","78092","Yvelines","Île-de-France","48.865929","2.137874","https://www.tourisme-bougival.com/","Office de Tourisme et des Congrès de Versailles Grand Parc","2025-10-13T00:00:00.000Z","2026-02-12T10:08:37.734Z"
"Camping Municipal des Grands Cols","214548","Lieu","Hébergement","Hôtellerie de plein air","Saint-Jean-de-Maurienne","73300","73248","Savoie","Auvergne-Rhône-Alpes","45.271474","6.351428","http://campingdesgrandscols.com/","Office de tourisme Intercommunal Cœur de Maurienne","2026-01-10T00:00:00.000Z","2026-03-17T06:56:28.626Z"
"Musée de Géologie de la Maison du Parc","4692777","Lieu","Site culturel","Musée","Apt","84400","84003","Vaucluse","Provence-Alpes-Côte d'Azur","43.875276","5.397602","https://www.parcduluberon.fr/geosite/musee-de-geologie-apt/","Office de Tourisme Intercommunal Pays d’Apt Luberon","2026-01-05T00:00:00.000Z","2026-03-10T06:52:43.735Z"
"Domaine viticole Le Château des Selves","4954306","Lieu","Fournisseur de dégustation",,"Seillans","83440","83124","Var","Provence-Alpes-Côte d'Azur","43.606289","6.652727","https://www.chateaudesselves.com/","Office de Tourisme Intercommunal Pays de Fayence","2026-03-19T00:00:00.000Z","2026-03-20T06:48:32.835Z"
"Campanile Prime Lyon Centre - Gare Part-Dieu","214861","Lieu","Restauration,Hébergement","Restaurant,Hôtellerie","Lyon 3e Arrondissement","69003","69383","Rhône","Auvergne-Rhône-Alpes","45.760623","4.863529","https://lyon-centre-gare-part-dieu.campanile.com/fr-fr/","Lyon Tourisme et Congrès / ONLYLYON Tourisme","2026-01-23T00:00:00.000Z","2026-01-24T06:53:10.688Z"
"Restaurant Volcan Sancy","4726124","Lieu","Restauration",,"Nébouzat","63210","63248","Puy-de-Dôme","Auvergne-Rhône-Alpes","45.727046","2.890882","http://www.hotelvolcanpuydedome.com/","Office de Tourisme Auvergne VolcanSancy","2025-12-03T00:00:00.000Z","2026-02-12T10:08:37.809Z"
"Office de Tourisme de Saint Sorlin d'Arves","462979","Lieu","Commerce de détail,Service d'information touristique","Office de tourisme","Saint-Sorlin-d'Arves","73530","73280","Savoie","Auvergne-Rhône-Alpes","45.221287","6.229688","https://www.saintsorlindarves.com/","Office de Tourisme de Saint-Sorlin-d'Arves","2026-04-11T00:00:00.000Z","2026-04-12T06:03:23.075Z"
"Hôtel Ventoux Provence ""Domaine des Tilleuls""","4606174","Lieu","Hébergement","Hôtellerie","Malaucène","84340","84069","Vaucluse","Provence-Alpes-Côte d'Azur","44.173218","5.134712","https://www.hotel-ventoux-provence.com/fr/","Office de tourisme  Ventoux Provence Tourisme","2026-02-10T00:00:00.000Z","2026-02-11T08:55:27.912Z"
"Hôtel Restaurant au Gai Soleil du Mont-Aiguille","212038","Lieu","Restauration,Hébergement","Restaurant,Hôtellerie","Chichilianne","38930","38103","Isère","Auvergne-Rhône-Alpes","44.822526","5.549887","https://www.hotelgaisoleil.com/","Office de Tourisme du Trièves","2025-12-02T00:00:00.000Z","2026-01-21T06:50:24.324Z"
"Domaine Viticole  Val d'Iris","4954571","Lieu","Fournisseur de dégustation",,"Seillans","83440","83124","Var","Provence-Alpes-Côte d'Azur","43.605765","6.657303","https://valdiris.com/","Office de Tourisme Intercommunal Pays de Fayence","2026-03-17T00:00:00.000Z","2026-03-18T06:56:22.768Z"
"L'Actuel","150882","Lieu","Restauration",,"Chambéry","73000","73065","Savoie","Auvergne-Rhône-Alpes","45.571207","5.919163","http://www.hotel-chambery-actuel.fr/","Grand Chambéry Alpes Tourisme","2026-01-29T00:00:00.000Z","2026-01-30T06:57:59.341Z"
"Office de Tourisme de Maisons-Laffitte","4803217","Lieu","Commerce de détail,Service d'information touristique","Office de tourisme","Maisons-Laffitte","78600","78358","Yvelines","Île-de-France","48.945619","2.144991","http://www.tourisme-maisonslaffitte.fr/","Office de Tourisme de Maisons-Laffitte","2025-01-17T00:00:00.000Z","2026-02-12T10:08:37.401Z"
"Musée Louis Vouland","4615592","Lieu","Site culturel","Musée","Avignon","84000","84007","Vaucluse","Provence-Alpes-Côte d'Azur","43.947","4.8007","http://www.vouland.com/","Office de Tourisme Avignon Tourisme","2026-01-06T00:00:00.000Z","2026-01-07T07:03:32.531Z"
"Museum Requien - Musée d'Histoire Naturelle","4615594","Lieu","Site culturel","Musée","Avignon","84000","84007","Vaucluse","Provence-Alpes-Côte d'Azur","43.94664","4.803387","https://www.avignon.fr/les-equipements-1/les-musees/museum-requien","Office de Tourisme Avignon Tourisme","2026-04-01T00:00:00.000Z","2026-04-08T07:26:15.672Z"
"Office de Tourisme de Serre Chevalier & Briançon","477484","Lieu","Commerce de détail,Service d'information touristique","Office de tourisme","La Salle-les-Alpes","05240","05161","Hautes-Alpes","Provence-Alpes-Côte d'Azur","44.946242","6.559315","https://www.serre-chevalier.com/","Office de Tourisme de Serre Chevalier Briançon","2026-01-19T00:00:00.000Z","2026-01-20T06:48:56.252Z"
"Praz de Lys Sommand Tourisme - Espace accueil Mieussy","477486","Lieu","Commerce de détail,Service d'information touristique","Office de tourisme","Mieussy","74440","74183","Haute-Savoie","Auvergne-Rhône-Alpes","46.13081","6.518097",,"Praz de Lys Sommand Tourisme","2024-12-20T00:00:00.000Z","2026-02-12T10:08:37.458Z"
"Hôtel Le Saint-Geniès","5161382","Lieu","Hébergement","Hôtellerie","Uzès","30700","30334","Gard","Occitanie","44.023324","4.419294","http://www.hotel-saintgenies.com/","Destination Pays d'Uzès Pont du Gard","2026-03-17T00:00:00.000Z","2026-03-18T06:56:22.757Z"
"Bureau d'Information Touristique de Manosque","4984384","Lieu","Commerce de détail,Service d'information touristique","Office de tourisme","Manosque","04100","04112","Alpes-de-Haute-Provence","Provence-Alpes-Côte d'Azur","43.833896","5.782376","https://www.paysdemanosque.com/,https://www.tourisme-manosque.fr/","Office de Tourisme et des Congrès du Pays de Manosque","2026-04-08T00:00:00.000Z","2026-04-09T07:36:13.669Z"
"Hôtel La Terrasse","898907","Lieu","Restauration,Hébergement","Restaurant,Hôtellerie","Vieillevie","15120","15260","Cantal","Auvergne-Rhône-Alpes","44.644474","2.419119","http://www.hotel-terrasse.com/","Office de Tourisme de la Châtaigneraie Cantalienne","2026-01-20T00:00:00.000Z","2026-01-21T06:50:24.318Z"
"A.E.C. Forgeassoud","201310","Lieu","Hébergement","Hébergement collectif","Saint-Jean-de-Sixt","74450","74239","Haute-Savoie","Auvergne-Rhône-Alpes","45.924568","6.39129","http://www.aec-vacances.com/","Office de tourisme de Saint Jean de Sixt","2026-01-29T00:00:00.000Z","2026-01-30T06:57:59.341Z"
"Office de Tourisme Rumilly-Albanais","478564","Lieu","Commerce de détail,Service d'information touristique","Office de tourisme","Rumilly","74150","74225","Haute-Savoie","Auvergne-Rhône-Alpes","45.862012","5.947552","http://www.rumilly-tourisme.com/","Office de Tourisme Rumilly - Albanais","2026-03-05T00:00:00.000Z","2026-03-06T06:55:55.929Z"
"Le Petit Bois camping","4675149","Lieu","Hébergement","Hôtellerie de plein air","Ruynes-en-Margeride","15320","15168","Cantal","Auvergne-Rhône-Alpes","44.999069","3.21894","https://campinglepetitboiscantal.fr/","Office de Tourisme des Pays de Saint-Flour","2026-03-18T00:00:00.000Z","2026-03-19T06:58:54.719Z"
"Bureau d'Information Touristique de Saint-Benoît","ORGAQU086V500252","Lieu","Service d'information touristique","Office de tourisme","Saint-Benoît","86280","86214","Vienne","Nouvelle-Aquitaine","46.549615","0.3402","http://www.visitpoitiers.fr/","Office de Tourisme de Grand Poitiers","2026-02-11T00:00:00.000Z","2026-04-10T23:51:29.278Z"
"Camping de Bourg-Charente","5752691","Lieu","Hébergement","Hôtellerie de plein air","Bourg-Charente","16200","16056","Charente","Nouvelle-Aquitaine","45.67239","-0.227439","https://campingbourgcharente.wixsite.com/lecamping","Fédération de l'Hôtellerie de Plein Air de Charente Maritime","2025-12-18T00:00:00.000Z","2026-01-30T06:57:59.332Z"
"Camping la Plage de Verduzan","6929357","Lieu","Hébergement","Hôtellerie de plein air","Castéra-Verduzan","32410","32083","Gers","Occitanie","43.808488","0.431169","https://www.camping-castera.com/","Office de Tourisme Grand Auch Coeur de Gascogne","2026-04-02T00:00:00.000Z","2026-04-08T07:26:15.733Z"
"Le Clos de la Côte d'Or","HLOBFC000V52ODTY","Produit,Lieu","Produit d'hébergement,Hébergement","Hébergement locatif","Ladoix-Serrigny","21550","21606","Côte-d'Or","Bourgogne-Franche-Comté","47.07858","4.88693","https://leclosdelacotedor.fr/","OT Beaune et Pays Beaunois | Cat.1","2026-04-11T00:00:00.000Z","2026-04-12T00:15:56.710Z"
"Base Nature et de loisirs Chabaud Latour - Accueil vélo","ASCHDF000V508EWH","Produit,Lieu","Location,Site sportif, récréatif et de loisirs,Prestataire de service","Location de matériel,Loueur de matériel","Condé-sur-l'Escaut","59163","59153","Nord","Hauts-de-France","50.4497","3.60452","https://www.condesurlescaut.fr/base-nature-et-de-loisirs","OT Valenciennes","2024-12-02T00:00:00.000Z","2025-11-19T08:46:48.376Z"
"Hôtel Restaurant Le Mas de la Prairie","5975965","Lieu","Restauration,Hébergement","Restaurant,Hôtellerie","Le Vigan","30120","30350","Gard","Occitanie","43.98437","3.602394","http://www.masdelaprairie.fr/","Office de Tourisme Sud Cévennes","2025-04-28T00:00:00.000Z","2026-02-06T06:56:19.550Z"
"Gîte La Maison du jardinier - Château du Gué aux Biches","HLONOR061V50D3CH","Lieu","Hébergement","Hébergement locatif","Bagnoles de l'Orne Normandie","61140","61483","Orne","Normandie","48.5684469","-0.4356571","https://www.gites-de-france-orne.com/resa/etape1.php?NUM=G961&INSTANCE=gites61&OPE=CDT61&ORI=CDT61&&&&&,https://www.gites-de-france-orne.com/cgi.php?&OPE=CDT61&ORI=CDT61&NUM=G961&ACC=G&FICHE=O&INSTANCE=gites61&","Orne Tourisme","2026-04-10T00:00:00.000Z","2026-04-11T22:16:26.678Z"
"Bastide - T4 - 110 m² - R+1 - Toulon Ouest","6730054","Lieu","Hébergement","Hébergement locatif","Toulon","83200","83137","Var","Provence-Alpes-Côte d'Azur","43.150614","5.895641","https://gitevelotoulon.fr/","Office de Tourisme Provence Méditerranée","2025-01-17T00:00:00.000Z","2026-02-06T06:56:19.567Z"
"Office de Tourisme de Tourcoing","ORGPIC002V512HIK","Lieu","Service d'information touristique","Office de tourisme","Tourcoing","59200","59599","Nord","Hauts-de-France","50.7226177","3.1601896",,"SIM Hauts-de-France - Oise Tourisme","2025-09-16T00:00:00.000Z","2025-09-17T03:08:12.944Z"
"Le Moulin d'Hélène","HLOAQU019V5026W7","Lieu","Hébergement","Hébergement locatif","Meymac","19250","19136","Corrèze","Nouvelle-Aquitaine","45.5417707","2.15142507","https://www.lemoulinhelene.fr/,https://www.lemoulinhelene.fr/","Corrèze Tourisme","2026-02-02T00:00:00.000Z","2026-04-11T01:07:59.924Z"
"Bar Les Cerisiers","7045952","Lieu","Site sportif, récréatif et de loisirs,Restauration","Bistrot - Bar à vin","Brides-les-Bains","73570","73057","Savoie","Auvergne-Rhône-Alpes","45.45183","6.566638","http://www.hotel-amelie.com/","Office de Tourisme de Brides-les-Bains","2024-09-03T00:00:00.000Z","2026-02-12T10:08:37.364Z"
"Gîte Rêve d'étoile","777009577","Lieu","Hébergement","Hébergement locatif","Le Valtin","88230","88492","Vosges","Grand Est","48.0972373","7.0202156",,"OT COMMUNAUTAIRE GERARDMER HAUTES VOSGES","2026-02-03T00:00:00.000Z","2026-02-05T06:02:22.418Z"
"Office de tourisme de Wasquehal","ORGPIC002V512HIL","Lieu","Service d'information touristique","Office de tourisme","Wasquehal","59290","59646","Nord","Hauts-de-France","50.67054","3.1278",,"SIM Hauts-de-France - Oise Tourisme","2025-09-16T00:00:00.000Z","2025-09-17T03:08:12.944Z"
"Gîtes de France® - Gîte du Levant","HLONOR076V51XF3U","Lieu","Hébergement","Hébergement locatif","Saint-Pierre-lès-Elbeuf","76320","76640","Seine-Maritime","Normandie","49.276611","1.050498",,"Seine-Maritime Attractivité","2026-04-05T00:00:00.000Z","2026-04-08T04:47:36.437Z"
"Office de tourisme Seclin - Mélantois","ORGPIC002V512HI8","Lieu","Service d'information touristique","Office de tourisme","Seclin","59113","59560","Nord","Hauts-de-France","50.54591","3.02567",,"SIM Hauts-de-France - Oise Tourisme","2025-09-16T00:00:00.000Z","2025-09-17T03:08:12.944Z"
"Office de tousime et des congrès de Valenciennes Métropole","ORGPIC002V512HI4","Lieu","Service d'information touristique","Office de tourisme","Valenciennes","59300","59606","Nord","Hauts-de-France","50.35743","3.52844",,"SIM Hauts-de-France - Oise Tourisme","2025-09-16T00:00:00.000Z","2025-09-17T03:08:12.944Z"
"Office de tourisme Cœur d'Ostrevent","ORGPIC002V512HHO","Lieu","Service d'information touristique","Office de tourisme","Pecquencourt","59146","59456","Nord","Hauts-de-France","50.37355","3.22629",,"SIM Hauts-de-France - Oise Tourisme","2025-09-16T00:00:00.000Z","2025-09-17T03:08:12.944Z"
"Ecomusée Les racines de la vie rurale","PCUHDF000V508EGL","Lieu","Site culturel","Musée","Ledringhem","59470","59338","Nord","Hauts-de-France","50.87861","2.45432","https://www.ecomusee-lesracinesdelavierurale.com/","Terre de Flandre Tourisme","2024-10-07T00:00:00.000Z","2026-03-26T23:12:14.143Z"
"Cascade waterpark","LOIAQU047FS000CG","Lieu","Site sportif, récréatif et de loisirs","Parc de loisirs, parc à thème,Complexe de loisirs (loisirs regroupés)","Damazan","47160","47078","Lot-et-Garonne","Nouvelle-Aquitaine","44.2823396","0.2739475","https://cascadewaterpark.com/","OT du Confluent et des Coteaux de Prayssas","2026-03-25T00:00:00.000Z","2026-04-11T02:21:16.869Z"
"ARGILEUM - LA MAISON DE LA POTERIE","PCULAR034FS0004P","Lieu","Site culturel","Musée","Saint-Jean-de-Fos","34150","34267","Hérault","Occitanie","43.7027048","3.55152138","https://reservation.saintguilhem-valleeherault.fr/,http://www.argileum.fr/","34 - OT ST GUILHEM VALLEE DE L'HERAULT","2026-04-06T00:00:00.000Z","2026-04-08T02:25:44.710Z"
"JARDIN ANTIQUE MEDITERRANEEN","PCULAR034V50E68E","Lieu","Site culturel","Parc et jardin","Balaruc-les-Bains","34540","34023","Hérault","Occitanie","43.4433794","3.68380444","https://patrimoine.agglopole.fr/visites/jardin-antique-mediterraneen/,https://patrimoine.agglopole.fr/jardin-antique-mediterraneen/","34 - OT ARCHIPEL DE THAU - BALARUC LES BAINS","2026-04-08T00:00:00.000Z","2026-04-09T02:25:28.272Z"
"FISHEIRA BIKE","ASCLAR034V50GCFE","Produit,Lieu","Pratique,Transport,Prestataire de service","Pratique libre,Compagnie de taxis,Compagnie de taxis","Frontignan","34110","34108","Hérault","Occitanie","43.4321756","3.7706585","http://www.galexiabienetre-deferlantes.fr/","34 - Office de Tourisme Archipel de Thau","2026-04-01T00:00:00.000Z","2026-04-08T02:21:34.774Z"
"LE MG","RESLAR034FS001QJ","Lieu","Restauration","Restaurant,Glacier","Frontignan","34110","34108","Hérault","Occitanie","43.4351741","3.77337455","https://restaurant-mg.fr/,https://restaurant-mg.fr/reserver/","34 - Office de Tourisme Archipel de Thau","2026-04-01T00:00:00.000Z","2026-04-08T02:24:18.221Z"
"MUSÉE DE LA MER","PCULAR034V50O799","Lieu","Site culturel","Musée","Sète","34200","34301","Hérault","Occitanie","43.39365","3.69172","https://www.sete.fr/culture-et-patrimoine/musees-et-lieux-dexpositions/musee-de-la-mer/","34 - Office de Tourisme Archipel de Thau","2026-04-08T00:00:00.000Z","2026-04-09T02:25:28.272Z"
"Emeraude Location","ASCAQU047FS00030","Produit,Lieu","Location,Pratique,Prestataire d'activité,Site sportif, récréatif et de loisirs,Service pratique","Location de matériel","Fourques-sur-Garonne","47200","47101","Lot-et-Garonne","Nouvelle-Aquitaine","44.4610916","0.1389578","http://www.emeraudelocabateaux.fr/","OT Val de Garonne","2026-03-25T00:00:00.000Z","2026-04-11T02:13:11.808Z"
"MUSEE DE LA SPELEOLOGIE DE LA GROTTE LA FILEUSE DE VERRE","PCULAR0340000076","Lieu","Site culturel","Musée","Courniou","34220","34086","Hérault","Occitanie","43.474727","2.710465","http://www.lafileusedeverre.fr/","34 - OT DU MINERVOIS AU CAROUX EN HAUT LANGUEDOC","2026-04-06T00:00:00.000Z","2026-04-08T02:25:44.711Z"
"ESPACE GEORGES BRASSENS","PCULAR0340000013","Lieu","Site culturel","Musée","Sète","34200","34301","Hérault","Occitanie","43.4059619","3.6648194","http://www.espace-brassens.fr/,https://www.espace-brassens.fr/boutique/billetterie-sete-espace-georges-brassens.html","34 - Office de Tourisme Archipel de Thau","2026-04-06T00:00:00.000Z","2026-04-08T02:25:44.711Z"
"MUSÉE RÉGIONAL D'ART CONTEMPORAIN OCCITANIE / PYRÉNÉES-MÉDITERRANÉE","PCULAR0340000131","Lieu","Site culturel","Musée","Sérignan","34410","34299","Hérault","Occitanie","43.2802084","3.2813174","https://mrac.laregion.fr/","34 - OT BEZIERS MEDITERRANEE","2026-02-10T00:00:00.000Z","2026-02-11T03:20:56.663Z"
"ENSERUNE. OPPIDUM ET MUSÉE ARCHÉOLOGIQUE","PCULAR0340000078","Lieu","Site culturel","Site archéologique","Nissan-lez-Enserune","34440","34183","Hérault","Occitanie","43.3102535","3.11537996","http://www.enserune.fr/","34 - OT LA DOMITIENNE","2026-04-06T00:00:00.000Z","2026-04-08T02:25:44.712Z"
"CHATEAU DE FLAUGERGUES VISITES","PCULAR0340000039","Lieu","Site culturel","Site de défense","Montpellier","34000","34172","Hérault","Occitanie","43.6104562","3.91846656","http://www.flaugergues.com/,https://book.montpellier-francia.es/es/para-hacer?filter=c=56186&sorting=st=rnd;so=a,https://book.montpellier-france.com/en/todo?filter=c=56186&sorting=st=rnd;so=a","34 - OT MONTPELLIER","2026-04-06T00:00:00.000Z","2026-04-08T02:25:44.712Z"
"Muséum-Aquarium de Nancy","737000222","Lieu","Site culturel","Musée","Nancy","54000","54395","Meurthe-et-Moselle","Grand Est","48.694898","6.18832799999996","https://www.museumaquariumdenancy.eu/accueil","DESTINATION NANCY","2026-03-11T00:00:00.000Z","2026-03-12T05:44:36.202Z"
"Moulin de la Blies - Musée des Techniques Faïencières","947000203","Lieu","Site culturel","Musée","Sarreguemines","57200","57631","Moselle","Grand Est","49.1108333333333","7.0725","https://www.sarreguemines-museum.fr/","OT COMMUNAUTAIRE SARREGUEMINES CONFLUENCES","2026-04-10T00:00:00.000Z","2026-04-11T04:42:56.895Z"
"Garden Café - Comptoir Calendal","5229306","Lieu","Restauration","Restauration Rapide","Arles","13200","13004","Bouches-du-Rhône","Provence-Alpes-Côte d'Azur","43.676696","4.63055","https://www.lecalendal.com/wp-content/uploads/2025/07/Carte-restaurant-le-calendal-Arles-072025.pdf,http://www.lecalendal.com/","Office de Tourisme d'Arles","2025-11-20T00:00:00.000Z","2026-02-18T05:08:25.582Z"
"Les Ânes de la Rêverie","5699629","Lieu","Prestataire d'activité,Commerce de détail",,"Saint-Césaire","17770","17314","Charente-Maritime","Nouvelle-Aquitaine","45.749042","-0.468538","https://www.lesanesdelareverie.com/","Office de Tourisme de Saintes & la Saintonge","2026-01-23T00:00:00.000Z","2026-01-24T06:53:10.681Z"
"Gîte Nénuphar du Moulin de Prézier","5700204","Lieu","Hébergement","Hébergement collectif","Cherves-Richemont","16370","16097","Charente","Nouvelle-Aquitaine","45.738773","-0.37439","http://www.moulindeprezier.fr/","Destination Cognac","2025-11-15T00:00:00.000Z","2026-02-06T06:56:19.546Z"
"Le Relais de Nature - Archipel Accueil International","227390","Lieu","Hébergement","Hébergement collectif","Briançon","05100","05023","Hautes-Alpes","Provence-Alpes-Côte d'Azur","44.877962","6.611256","https://archipel-vacances.fr/ethic-etapes-le-relais-de-nature/,https://archipel-vacances.fr/","Office de Tourisme de Serre Chevalier Briançon","2025-10-15T00:00:00.000Z","2026-01-01T06:52:10.365Z"
"Monts et Délices","4839463","Lieu","Hébergement","Hébergement locatif","Dienne","15300","15061","Cantal","Auvergne-Rhône-Alpes","45.159415","2.789513","http://www.montsetdelices.com/","Hautes Terres Tourisme","2025-11-10T00:00:00.000Z","2026-02-06T06:56:19.575Z"
"Les Chambres du Moulin de Prézier","5700212","Lieu","Hébergement","Hébergement collectif","Cherves-Richemont","16370","16097","Charente","Nouvelle-Aquitaine","45.738773","-0.37439","http://www.moulindeprezier.fr/","Destination Cognac","2025-11-15T00:00:00.000Z","2026-02-06T06:56:19.572Z"
"Office de Tourisme  Nice Côte d'Azur - Bureau de Saint-Laurent-du-Var","4983699","Lieu","Commerce de détail,Service d'information touristique","Office de tourisme","Saint-Laurent-du-Var","06700","06123","Alpes-Maritimes","Provence-Alpes-Côte d'Azur","43.656399","7.17931","https://www.explorenicecotedazur.com/saint-laurent-du-var/","Office de Tourisme Métropolitain Nice Côte d'Azur","2026-03-27T00:00:00.000Z","2026-03-28T07:22:18.140Z"
"Les Lodges de la Viarhôna : les tentes-lodges","5252150","Lieu","Hébergement","Hôtellerie de plein air","Virignin","01300","01454","Ain","Auvergne-Rhône-Alpes","45.723732","5.704247","https://www.leslodgesdelaviarhona.com/","Office de Tourisme Bugey Sud Grand Colombier","2026-01-14T00:00:00.000Z","2026-01-15T06:55:29.454Z"
"La Maison 19","HLOAQU079V502JNS","Lieu","Hébergement","Hébergement locatif","Niort","79000","79191","Deux-Sèvres","Nouvelle-Aquitaine","46.321552","-0.454982","https://www.lamaison19.fr/reservation-en-ligne.html,https://www.lamaison19.fr/,https://www.lamaison19.fr/reservation-en-ligne.html,https://www.lamaison19.fr/","OT Niort Marais Poitevin","2026-02-19T00:00:00.000Z","2026-04-11T01:33:52.902Z"
"Bureau d'Information Touristique de Segonzac","5707851","Lieu","Commerce de détail,Service d'information touristique","Office de tourisme","Segonzac","16130","16366","Charente","Nouvelle-Aquitaine","45.617128","-0.219043","https://www.destination-cognac.com/","Destination Cognac","2026-02-06T00:00:00.000Z","2026-02-07T09:36:15.195Z"
"Demeure Jousset des Berries","HLOPDL072V50P8HY","Lieu","Hébergement","Hébergement locatif","Le Mans","72000","72181","Sarthe","Pays de la Loire","48.0120523","0.2007329","https://www.demeurejoussetdesberries.fr/","CDT72","2026-03-27T00:00:00.000Z","2026-03-28T04:48:53.615Z"
"Gîtes de France G772 : L'Amandière","HLONOR050V505QJE","Lieu","Hébergement","Hébergement locatif","Sainte-Marie-du-Mont","50480","50509","Manche","Normandie","49.4052777","-1.2130666","https://domaine-utah-beach.com/,https://domaine-utah-beach.com/","Attitude Manche","2026-04-06T00:00:00.000Z","2026-04-08T02:37:07.001Z"
"Gîtes Le Mas des Iles : La Maison de Fernand","5834891","Lieu","Hébergement","Hébergement locatif","Pont-Saint-Esprit","30130","30202","Gard","Occitanie","44.247291","4.654419","https://provence-mas-des-iles.com/gite-maison-de-fernand/","Office de Tourisme Provence Occitane","2026-01-29T00:00:00.000Z","2026-01-30T06:57:59.335Z"
"Gîtes Le Mas des Iles : L'Atelier de Fernand","5834763","Lieu","Hébergement","Hébergement locatif","Pont-Saint-Esprit","30130","30202","Gard","Occitanie","44.247291","4.654419","https://provence-mas-des-iles.com/","Office de Tourisme Provence Occitane","2025-05-12T00:00:00.000Z","2026-02-06T06:56:19.563Z"
"Les Mille.s Roches","5803618","Lieu","Hébergement","Hébergement locatif","Gordes","84220","84050","Vaucluse","Provence-Alpes-Côte d'Azur","43.912181","5.211892","https://lesmillesroches.com/","Destination Luberon Monts de Vaucluse","2026-01-27T00:00:00.000Z","2026-01-28T06:58:16.808Z"
"Camping Club Les Jardins De La Mer","89079","Lieu","Hébergement","Hôtellerie de plein air","Merlimont","62155","62571","Pas-de-Calais","Hauts-de-France","50.456467","1.605603","https://www.lesjardinsdelamer.com/","Office de Merlimont","2025-12-12T00:00:00.000Z","2026-03-16T08:56:54.060Z"
"Chambres d'hôtes Une Nuit sur Loire","HLOPDL049V50EKNO","Lieu","Hébergement","Hébergement locatif","Gennes-Val-de-Loire","49350","49261","Maine-et-Loire","Pays de la Loire","47.3241053","-0.1909723","https://www.unenuitsurloire.fr/","SPL SAUMUR VAL DE LOIRE TOURISME","2026-03-31T00:00:00.000Z","2026-04-01T02:53:05.023Z"
"Cave et Terroirs","RESPIC060V50CRS6","Lieu","Restauration","Restaurant","Clermont","60600","60157","Oise","Hauts-de-France","49.37786","2.41564","https://www.caveetterroirs.com/?fbclid=IwAR0wEY0hvKy98NB6l9YuH-Q87jvDxcOndrymMUNsUfHvqtT12HZDV3fs4KI","Oise Tourisme","2021-06-29T00:00:00.000Z","2026-02-18T23:09:29.702Z"
"Les loges de Pérelle","6951522","Lieu","Hébergement","Hébergement locatif","Chozeau","38460","38109","Isère","Auvergne-Rhône-Alpes","45.699032","5.2075","https://www.gites-de-france-isere.com/fiche-hebergement-109050.html","Gîtes de France Isère","2026-03-31T00:00:00.000Z","2026-04-01T07:14:59.361Z"
"La Bergerie d'Annie","HLOCEN037V50T70S","Lieu","Hébergement","Hébergement locatif","Véretz","37270","37267","Indre-et-Loire","Centre-Val de Loire","47.3608172","0.8080713","https://www.facebook.com/bergerie.veretz","Montlouis-Vouvray Touraine Val de Loire","2026-01-08T00:00:00.000Z","2026-01-09T04:46:55.987Z"
"Rez-de-jardin privé dans maison familiale","HLOBFC000V531IVP","Produit,Lieu","Produit d'hébergement,Hébergement","Hébergement locatif","La Roche-Vineuse","71960","71371","Saône-et-Loire","Bourgogne-Franche-Comté","46.344918","4.72009062","https://alarochebleue.fr/,https://www.instagram.com/grandgitedelarochebleue/,https://www.facebook.com/Ecogitactions","Mâcon Sud Bourgogne, Tourisme et Congrès","2026-03-16T00:00:00.000Z","2026-03-18T01:10:44.509Z"
"LA PERLE GRUISSANAISE","RESLAR011V50JSTU","Lieu","Restauration",,"Gruissan","11430","11170","Aude","Occitanie","43.1101791","3.12636915","https://www.laperlegruissanaise.fr/","AGENCE DE DÉVELOPPEMENT TOURISTIQUE DE L'AUDE","2026-02-27T00:00:00.000Z","2026-02-28T04:05:30.060Z"
"Restaurant le Plomb du Cantal","7122578","Lieu","Restauration",,"Albepierre-Bredons","15300","15025","Cantal","Auvergne-Rhône-Alpes","45.078566","2.832327","http://www.hotelplombcantal.com/","Hautes Terres Tourisme","2025-12-10T00:00:00.000Z","2026-02-12T10:08:37.326Z"
"La noisetière","HLOCEN0410010221","Lieu","Hébergement","Hébergement locatif","Noyers-sur-Cher","41140","41164","Loir-et-Cher","Centre-Val de Loire","47.2754353","1.4007062","http://www.noisetiere.com/","ADT41","2026-02-17T00:00:00.000Z","2026-02-18T04:53:15.884Z"
"LE GRAND SOLEIL","RESLAR011FS000B1","Lieu","Restauration",,"Gruissan","11430","11170","Aude","Occitanie","43.0970296","3.11133878","https://linktr.ee/legrandsoleilgruissan","AGENCE DE DÉVELOPPEMENT TOURISTIQUE DE L'AUDE","2026-02-27T00:00:00.000Z","2026-02-28T04:05:30.060Z"
"LA MAISON DE MARIE","HLOCHA051V50PFRR","Lieu","Hébergement","Hébergement locatif","Rives Dervoises","52220","52411","Haute-Marne","Grand Est","48.512402","4.7011","https://www.gites-de-france-hautemarne.com/resa/etape1.php?NUM=52G524&INSTANCE=env52a&OPE=FAIRESAV&ORI=FAIRESAV&&&&&,https://www.lacduder.com/","Office de Tourisme du Lac du Der en Champagne","2026-04-02T00:00:00.000Z","2026-04-07T23:06:34.009Z"
"Chambre d'hôtes – Les Chataigniers","1284001578","Lieu","Hébergement","Hébergement locatif","Novéant-sur-Moselle","57680","57515","Moselle","Grand Est","49.023159","6.05022","https://leschataigniers-noveant.eatbu.com/?lang=fr","OT PONT A MOUSSON","2025-11-19T00:00:00.000Z","2025-11-20T06:01:41.456Z"
"Location de vélos Vittel en selle","748003815","Lieu","Prestataire de service","Loueur de matériel","Vittel","88800","88516","Vosges","Grand Est","48.1988155","5.9515504","http://www.vittel-en-selle.fr/","DESTINATION VITTEL-CONTREXEVILLE","2026-01-02T00:00:00.000Z","2026-01-03T06:54:02.537Z"
"B.A.-BA","RESLAR011FS000P1","Lieu","Restauration","Restaurant","Gruissan","11430","11170","Aude","Occitanie","43.1061221","3.08614015",,"AGENCE DE DÉVELOPPEMENT TOURISTIQUE DE L'AUDE","2026-02-27T00:00:00.000Z","2026-02-28T04:05:30.060Z"
"CHATEAU DU CLOS MORTIER","HLOCHA051V50PFQO","Lieu","Hébergement","Hébergement locatif","Saint-Dizier","52100","52448","Haute-Marne","Grand Est","48.628078","4.9685","https://www.gites-de-france-hautemarne.com/resa/etape1.php?NUM=52G1505&INSTANCE=env52a&OPE=FAIRESAV&ORI=FAIRESAV&&&&&,https://www.lacduder.com/","Office de Tourisme du Lac du Der en Champagne","2026-04-08T00:00:00.000Z","2026-04-08T23:02:55.362Z"
"LES OISEAUX","HLOCHA051V50PFRB","Lieu","Hébergement","Hébergement locatif","Louvemont","52130","52294","Haute-Marne","Grand Est","48.552311","4.91161","https://www.lacduder.com/,https://www.gites-de-france-hautemarne.com/resa/etape1.php?NUM=52G371&INSTANCE=env52a&OPE=FAIRESAV&ORI=FAIRESAV&&&&&","Office de Tourisme du Lac du Der en Champagne","2026-04-02T00:00:00.000Z","2026-04-07T23:06:34.008Z"
"LE MANOIR","HLOCHA051V50PFRJ","Lieu","Hébergement","Hébergement locatif","La Porte du Der","52220","52331","Haute-Marne","Grand Est","48.47731","4.77538","https://www.lacduder.com/,https://www.gites-de-france-hautemarne.com/resa/etape1.php?NUM=52G370&INSTANCE=env52a&OPE=FAIRESAV&ORI=FAIRESAV&&&&&","Office de Tourisme du Lac du Der en Champagne","2026-04-02T00:00:00.000Z","2026-04-07T23:06:34.008Z"
"Point d'information Touristique - Parc Provincial des Grandes Fougères","7083679","Lieu","Commerce de détail,Service d'information touristique","Office de tourisme","Farino","98881","98806","Nouvelle-Calédonie","Collectivités d'outre-mer","-21.628242","165.762106","https://www.sudtourisme.nc/","Sud Tourisme Nouvelle-Calédonie","2026-04-04T00:00:00.000Z","2026-04-08T07:26:15.709Z"
"Gîte ""L'étape de Jo""","HLOBFC000V50KYWM","Produit,Lieu","Produit d'hébergement,Hébergement","Hébergement locatif","Marcigny","71110","71275","Saône-et-Loire","Bourgogne-Franche-Comté","46.2726121","4.04093595",,"MARCIGNY │ OT de Marcigny-Semur | Cat.III","2026-04-11T00:00:00.000Z","2026-04-12T00:15:56.698Z"
"Cabane de la Sèvre à Saint-Fiacre-sur-Maine","HLOPDL044V50X3U5","Lieu","Hébergement","Hébergement locatif","Saint-Fiacre-sur-Maine","44690","44159","Loire-Atlantique","Pays de la Loire","47.1527528","-1.4114088","https://www.randocabane.fr/","Destination Vignoble Nantais","2026-01-05T00:00:00.000Z","2026-02-03T05:20:19.260Z"
"Domaine des Carriers - La Maison du Maître Carrier","HLOBFC000V508DRQ","Produit,Lieu","Produit d'hébergement,Hébergement","Hébergement locatif","Chevroches","58500","58073","Nièvre","Bourgogne-Franche-Comté","47.4506999","3.5447355","http://www.ledomainedescarriers.com/","Bourgogne-Franche-Comté Tourisme","2026-01-01T00:00:00.000Z","2026-04-08T00:18:42.028Z"
"CITADINES WILSON TOULOUSE","VILMID031FS00008","Lieu","Hébergement","Hébergement collectif","Toulouse","31000","31555","Haute-Garonne","Occitanie","43.60657","1.44806","https://discoverasr.com/,https://www.citadines.com/fr/france/toulouse/citadines-wilson-toulouse.html","OFFICE DE TOURISME DE TOULOUSE","2026-04-07T00:00:00.000Z","2026-04-07T23:10:10.098Z"
"Chalet Goville","5246670","Lieu","Hébergement","Hébergement locatif","La Giettaz","73590","73123","Savoie","Auvergne-Rhône-Alpes","45.878","6.5222","http://www.chalet-goville.com/","Office de Tourisme du Val d'Arly","2025-11-03T00:00:00.000Z","2026-02-06T06:56:19.545Z"
"L'ECHAPPEE","LOIPDL044V51FA90","Lieu","Site sportif, récréatif et de loisirs",,"Saint-Nazaire","44600","44184","Loire-Atlantique","Pays de la Loire","47.27436","-2.21393","https://lechappee-ateliercycles.fr/","OT Saint Nazaire","2026-01-09T00:00:00.000Z","2026-01-10T23:03:49.890Z"
"APPART HOTEL CLEMENT ADER","VILMID031FS00032","Lieu","Hébergement","Hébergement collectif","Toulouse","31000","31555","Haute-Garonne","Occitanie","43.60943","1.44866","https://www.instagram.com/mermozaderexupery/?hl=fr,https://www.apparthotel-clementader.fr/fr/","OFFICE DE TOURISME DE TOULOUSE","2026-01-07T00:00:00.000Z","2026-01-08T00:18:39.565Z"
"PRIVILEGE APPART-HOTEL SAINT-EXUPERY","VILMID031FS00029","Lieu","Hébergement","Hébergement collectif","Toulouse","31000","31555","Haute-Garonne","Occitanie","43.61013","1.45139","https://www.pinterest.fr/mermozaderexupery/_created/,https://www.privilegetoulouse.com/fr/,https://www.facebook.com/privilegehotelstoulouse/,https://www.instagram.com/mermozaderexupery/?hl=fr","OFFICE DE TOURISME DE TOULOUSE","2026-01-07T00:00:00.000Z","2026-01-08T00:18:39.545Z"
"Abris Préhistoriques de Laugerie Basse","PCUAQU024FS00007","Lieu","Site culturel","Musée","Les Eyzies","24620","24172","Dordogne","Nouvelle-Aquitaine","44.95267","1.002545","https://www.ticketsdordogne.com/fr/1203-abris-prehistoriques-de-laugerie-basse,https://www.abris-laugerie-basse.fr/","OT Lascaux Dordogne Vallée Vézère","2026-03-06T00:00:00.000Z","2026-03-07T02:42:09.736Z"
"Bateaux croisières : Compagnie des Bateaux Aix les Bains Riviera des Alpes","4777781","Lieu","Site sportif, récréatif et de loisirs","Bateau promenade","Aix-les-Bains","73100","73008","Savoie","Auvergne-Rhône-Alpes","45.705094","5.885994","https://www.bateaux-aixlesbains.com/","Agence Aix-les-Bains Riviera des Alpes","2026-02-12T00:00:00.000Z","2026-02-13T06:56:34.718Z"
"Office de Tourisme Val Guiers","760342","Lieu","Commerce de détail,Service d'information touristique","Office de tourisme","Saint-Genix-les-Villages","73240","73236","Savoie","Auvergne-Rhône-Alpes","45.598299","5.632606","https://www.tourisme.ccvalguiers.fr/","Communauté de Communes Val Guiers","2026-03-09T00:00:00.000Z","2026-03-10T06:52:43.735Z"
"Hôtel Novotel Nice Aéroport Cap 3000","4741949","Lieu","Hébergement","Hôtellerie","Saint-Laurent-du-Var","06700","06123","Alpes-Maritimes","Provence-Alpes-Côte d'Azur","43.658901","7.19494","https://all.accor.com/hotel/0414/index.fr.shtml","Office de Tourisme Métropolitain Nice Côte d'Azur","2026-03-25T00:00:00.000Z","2026-03-28T07:22:18.130Z"
"Cluses Arve & montagnes Tourisme - Bureau de Cluses","473200","Lieu","Commerce de détail,Service d'information touristique","Office de tourisme","Cluses","74300","74081","Haute-Savoie","Auvergne-Rhône-Alpes","46.060783","6.580172","https://www.cluses-montagnes-tourisme.com/","Cluses Arve & montagnes Tourisme","2026-03-12T00:00:00.000Z","2026-03-13T06:57:50.391Z"
"La Ruche Boutik'","4774198","Lieu","Commerce de détail","Maison de pays, produits du terroir","Chambéry","73000","73065","Savoie","Auvergne-Rhône-Alpes","45.563993","5.925364","https://www.chamberymontagnes.com/la-ruche-boutik/","Grand Chambéry Alpes Tourisme","2026-03-26T00:00:00.000Z","2026-03-27T06:57:53.244Z"
"Mona Lisa","752252","Lieu","Restauration",,"Apt","84400","84003","Vaucluse","Provence-Alpes-Côte d'Azur","43.876223","5.395074",,"Office de Tourisme Intercommunal Pays d’Apt Luberon","2024-11-13T00:00:00.000Z","2026-02-12T10:08:37.455Z"
"Panoramique des Dômes","4696502","Lieu","Site sportif, récréatif et de loisirs","Train touristique","Orcines","63870","63263","Puy-de-Dôme","Auvergne-Rhône-Alpes","45.772697","2.987692","http://www.panoramiquedesdomes.fr/","Conseil départemental du Puy-de-Dôme","2026-03-06T00:00:00.000Z","2026-03-07T06:56:52.651Z"
"Hôtel des Pins","4603397","Lieu","Restauration,Hébergement","Restaurant,Hôtellerie","Bédoin","84410","84017","Vaucluse","Provence-Alpes-Côte d'Azur","44.11039","5.184538","https://www.hotel-des-pins.fr/fr/","Office de tourisme  Ventoux Provence Tourisme","2025-12-17T00:00:00.000Z","2026-01-30T06:57:59.327Z"
"Musée Lou Ferouil","4738359","Lieu","Site culturel","Musée","Gilette","06830","06066","Alpes-Maritimes","Provence-Alpes-Côte d'Azur","43.877797","7.153265","https://www.tripadvisor.fr/Attraction_Review-g1237552-d3625709-Reviews-Musee_Lou_Ferouil-Gilette_French_Riviera_Cote_d_Azur_Provence_Alpes_Cote_d_Azur.html","Office de Tourisme Métropolitain Nice Côte d'Azur","2026-02-26T00:00:00.000Z","2026-02-27T06:56:13.642Z"
"Le Bélico","4612114","Lieu","Restauration",,"Pertuis","84120","84089","Vaucluse","Provence-Alpes-Côte d'Azur","43.675716","5.496987",,"Office de Tourisme de Pertuis","2025-12-11T00:00:00.000Z","2026-01-01T06:52:10.358Z"
"Bureau d'information touristique de Saint-Jorioz","476580","Lieu","Commerce de détail,Service d'information touristique","Office de tourisme","Saint-Jorioz","74410","74242","Haute-Savoie","Auvergne-Rhône-Alpes","45.833516","6.16465","https://www.lac-annecy.com/","Office de Tourisme du Lac d'Annecy","2026-04-04T00:00:00.000Z","2026-04-08T07:26:15.735Z"
"Hôtel Rivière","809565","Lieu","Hébergement","Hôtellerie","Castres","81100","81065","Tarn","Occitanie","43.605987","2.242377","http://hotelriviere.wixsite.com/hotel-riviere","Office de Tourisme de Castres-Mazamet","2026-01-20T00:00:00.000Z","2026-01-21T06:50:24.312Z"
"Nature en sac","ASCNOR061V506436","Lieu","Prestataire d'activité",,"Athis-Val de Rouvre","61100","61007","Orne","Normandie","48.8134206","-0.3950287","https://www.cpie61.fr/a-voir-a-faire-au-cpie/la-maison-du-paysage/,https://www.cpie61.fr/","Flers agglo","2026-03-01T00:00:00.000Z","2026-04-07T22:19:41.740Z"
"Cueillette de l’Aragnon","DEGAQU064V5ANFY6","Lieu","Commerce de détail,Fournisseur de dégustation","Boutique, commerce de proximité,Producteur","Montardon","64121","64399","Pyrénées-Atlantiques","Nouvelle-Aquitaine","43.366843","-0.351098","https://www.cueillettedelaragnon.fr/","Syndicat du tourisme Coteaux Béarn Madiran","2026-04-10T00:00:00.000Z","2026-04-11T01:49:52.417Z"
"La Paumanelle","5127874","Lieu","Hébergement","Hébergement locatif","Dolomieu","38110","38148","Isère","Auvergne-Rhône-Alpes","45.607193","5.495662","https://lapaumanelle.fr/reservations-en-ligne/,http://lapaumanelle.fr/","Office de Tourisme des Vals du Dauphiné","2026-02-24T00:00:00.000Z","2026-02-25T07:00:31.431Z"
"L'Orée du Bois","4877727","Lieu","Hébergement","Hébergement locatif","Yenne","73170","73330","Savoie","Auvergne-Rhône-Alpes","45.70376","5.799762",,"Office de Tourisme de Yenne","2024-12-20T00:00:00.000Z","2026-01-06T07:05:11.836Z"
"Les Soldanelles des Alpes","414288","Lieu","Hébergement","Hébergement locatif","Taninges","74440","74276","Haute-Savoie","Auvergne-Rhône-Alpes","46.10378","6.59822","https://gitebalneo.com/","Praz de Lys Sommand Tourisme","2026-02-09T00:00:00.000Z","2026-02-11T08:55:27.846Z"
"POINT D'EAU","M6511MIP065V5017ZB","Lieu","Service pratique","Point d'eau","Gavarnie-Gèdre","65120","65192","Hautes-Pyrénées","Occitanie","42.7886758","0.01935963",,"HAUTES PYRENEES TOURISME ENVIRONNEMENT","2025-10-21T00:00:00.000Z","2025-10-22T03:50:11.861Z"
"Maison d'hôtes La Bageatière","209266","Lieu","Hébergement","Hébergement locatif","Lépin-le-Lac","73610","73145","Savoie","Auvergne-Rhône-Alpes","45.532473","5.794531","http://www.labageatiere.com/","Office de Tourisme Lac d'Aiguebelette","2026-01-23T00:00:00.000Z","2026-01-24T06:53:10.688Z"
"Au fil de Leyne","417855","Lieu","Hébergement","Hébergement locatif","La Coucourde","26740","26106","Drôme","Auvergne-Rhône-Alpes","44.647055","4.780948","http://www.gite-lacoucourde.com/","Montélimar Tourisme Agglomération","2025-02-20T00:00:00.000Z","2026-01-15T06:55:29.445Z"
"Le Refuge d'Alta Terra","5426715","Lieu","Hébergement","Hébergement locatif","Lavigerie","15300","15102","Cantal","Auvergne-Rhône-Alpes","45.137956","2.743715","https://www.altaterra-cantal.com/le-refuge-alta-terra/","Hautes Terres Tourisme","2025-12-09T00:00:00.000Z","2026-02-06T06:56:19.549Z"
"Alta Terra","4839552","Lieu","Hébergement","Hébergement locatif","Lavigerie","15300","15102","Cantal","Auvergne-Rhône-Alpes","45.13838","2.743715","http://www.altaterra-cantal.com/","Hautes Terres Tourisme","2025-12-09T00:00:00.000Z","2026-02-06T06:56:19.547Z"
"Moulin Baussy","2809777","Lieu","Fournisseur de dégustation",,"Spéracèdes","06530","06137","Alpes-Maritimes","Provence-Alpes-Côte d'Azur","43.646699","6.857045","http://www.moulinbaussy.com/","Pays de Grasse Tourisme","2026-02-05T00:00:00.000Z","2026-02-06T06:56:19.554Z"
"Chambres et Table d'Hôtes de Massigoux","4671579","Lieu","Hébergement","Hébergement locatif","Aurillac","15000","15014","Cantal","Auvergne-Rhône-Alpes","44.941252","2.437752","https://www.massigoux.com/","Office de Tourisme du Pays d'Aurillac","2026-03-03T00:00:00.000Z","2026-03-04T06:56:27.175Z"
"Zecamp","5134457","Lieu","Restauration",,"Corrençon-en-Vercors","38250","38129","Isère","Auvergne-Rhône-Alpes","45.023615","5.518793","http://www.zecamp.fr/","Office de Tourisme de Corrençon en Vercors","2026-03-25T00:00:00.000Z","2026-03-26T07:17:25.184Z"
"Guillet Sports - Sport 2000","73744","Produit,Lieu","Location,Commerce de détail,Prestataire de service","Location de matériel,Loueur de matériel","Corrençon-en-Vercors","38250","38129","Isère","Auvergne-Rhône-Alpes","45.029521","5.524573","https://guillet-sports.fr/","Office de Tourisme de Corrençon en Vercors","2025-12-20T00:00:00.000Z","2026-01-28T06:58:16.807Z"
"Auberge de Jeunesse HI Serre Chevalier","5015906","Lieu","Hébergement","Hébergement collectif","La Salle-les-Alpes","05240","05161","Hautes-Alpes","Provence-Alpes-Côte d'Azur","44.944798","6.553521","https://www.hifrance.org/auberges-de-jeunesse/serre-chevalier/","Office de Tourisme de Serre Chevalier Briançon","2026-04-08T00:00:00.000Z","2026-04-09T07:36:13.643Z"
"Location de vélos mécaniques à Vienne","5538876","Produit,Lieu","Location,Commerce de détail,Prestataire de service","Location de matériel,Loueur de matériel","Vienne","38200","38544","Isère","Auvergne-Rhône-Alpes","45.52218","4.869657",,"Office de Tourisme de Vienne Condrieu Agglomération","2026-03-15T00:00:00.000Z","2026-03-16T06:58:51.086Z"
"Mestre Père & Fils","VINBOU0000200813","Lieu","Fournisseur de dégustation","Cave ou caveau,Producteur","Santenay","21590","21582","Côte-d'Or","Bourgogne-Franche-Comté","46.9116243","4.7002359","https://www.mestre-pere-et-fils.fr/fr/,https://www.instagram.com/domainemestre/,https://www.facebook.com/domainemestre/,http://www.mestre-pere-et-fils.fr/","Bourgogne-Franche-Comté Tourisme","2026-01-01T00:00:00.000Z","2026-01-02T04:31:46.829Z"
"""Les 4 Saisons""","4671569","Lieu","Hébergement","Hébergement locatif","Mandailles-Saint-Julien","15590","15113","Cantal","Auvergne-Rhône-Alpes","45.067352","2.658753","https://www.gite-vertazur.com/","Office de Tourisme du Pays d'Aurillac","2026-02-25T00:00:00.000Z","2026-02-26T06:52:39.785Z"
"Location de vélos mécaniques avec porte-bébé à Vienne","5538887","Produit,Lieu","Location,Commerce de détail,Prestataire de service","Location de matériel,Loueur de matériel","Vienne","38200","38544","Isère","Auvergne-Rhône-Alpes","45.52218","4.869657",,"Office de Tourisme de Vienne Condrieu Agglomération","2026-03-15T00:00:00.000Z","2026-03-16T06:58:51.086Z"
"Gîte des Loges","732647","Lieu","Hébergement","Hébergement locatif","Roanne","42300","42187","Loire","Auvergne-Rhône-Alpes","46.058149","4.099156","http://www.gitedesloges.fr/","Roannais Tourisme","2026-02-04T00:00:00.000Z","2026-02-05T07:10:57.987Z"
"Le gîte des Jardins de Mazamet","5553558","Lieu","Hébergement","Hébergement locatif","Mazamet","81200","81163","Tarn","Occitanie","43.490913","2.373793","https://www.gites-de-france-sud.fr/gites/G1663","Association Tarnaise de Tourisme en Espace Rural (Gîtes de France)","2026-03-12T00:00:00.000Z","2026-03-13T06:57:50.383Z"
"Gîte de groupe - Champlitte","HCOBFC070333000482","Lieu","Hébergement","Hébergement collectif","Champlitte","70600","70122","Haute-Saône","Bourgogne-Franche-Comté","47.6149873","5.51254034","https://www.gites-de-france.com/fr/bourgogne-franche-comte/haute-saone/gite-de-groupe-champlitte-h70g000674,https://www.facebook.com/ot4rivieres/","OFFICE DE TOURISME DES 4 RIVIERES","2025-12-12T00:00:00.000Z","2026-01-03T00:58:30.625Z"
"Magasin Brun Sports et location de vélo","329147","Lieu","Commerce de détail",,"Saint-Pierre-de-Chartreuse","38380","38442","Isère","Auvergne-Rhône-Alpes","45.343655","5.814815","http://www.brun-sports.com/","Office de Tourisme Coeur de Chartreuse","2026-03-17T00:00:00.000Z","2026-03-18T06:56:22.766Z"
"Gîte d'étape et de séjour Le Petit Bonheur","152089","Lieu","Hébergement","Hébergement collectif","Bessans","73480","73040","Savoie","Auvergne-Rhône-Alpes","45.322041","6.999654","https://www.lepetitbonheur-bessans.fr/","Haute Maurienne Vanoise Tourisme","2026-02-03T00:00:00.000Z","2026-02-05T07:10:58.019Z"
"Les Roulottes du Lac des Graves","4731318","Lieu","Hébergement","Hébergement locatif","Lascelle","15590","15096","Cantal","Auvergne-Rhône-Alpes","45.015226","2.557862","http://www.lacdesgraves.com/","Office de Tourisme du Pays d'Aurillac","2026-01-17T00:00:00.000Z","2026-01-18T06:45:59.785Z"
"Château de Matel","118956","Lieu","Hébergement","Hébergement locatif","Roanne","42300","42187","Loire","Auvergne-Rhône-Alpes","46.058149","4.099156","http://www.chateaudematel.fr/","Roannais Tourisme","2026-03-05T00:00:00.000Z","2026-03-06T06:55:55.934Z"
"Besancenot","VINBOU0000201166","Lieu","Fournisseur de dégustation","Producteur","Beaune","21200","21054","Côte-d'Or","Bourgogne-Franche-Comté","47.0305186","4.8418464","https://reservation.beaune-tourisme.fr/besancenot.html,https://www.instagram.com/,http://www.domaine-besancenot.fr/,https://www.facebook.com/Domaine-Besancenot,https://reservation.beaune-tourisme.fr/besancenot.html,https://www.domaine-besancenot.fr/","Bourgogne-Franche-Comté Tourisme","2026-01-06T00:00:00.000Z","2026-01-07T04:24:40.318Z"
"Auberge des Milans","5151331","Lieu","Restauration",,"Saint-Cirgues-de-Jordanne","15590","15178","Cantal","Auvergne-Rhône-Alpes","45.031443","2.576755","http://www.puech-verny.com/","Office de Tourisme du Pays d'Aurillac","2026-02-24T00:00:00.000Z","2026-02-25T07:00:31.431Z"
"Musée ""Regards sur le Passé""","PCUAQU033FS000VT","Lieu","Site culturel","Musée","Hourtin","33990","33203","Gironde","Nouvelle-Aquitaine","45.1858253","-1.064103",,"OT Médoc Atlantique","2026-04-01T00:00:00.000Z","2026-04-08T02:07:54.075Z"
"Tiny House  ""sous les poiriers""","HLONOR061V50839S","Lieu","Hébergement","Hébergement locatif","Domfront en Poiraie","61700","61145","Orne","Normandie","48.581911","-0.5966724","http://www.yourte-souslespoiriers.com/","Orne Tourisme","2026-04-11T00:00:00.000Z","2026-04-12T22:16:28.936Z"
"Chez Ari - tipis","HPABFC000V50LUS4","Lieu","Hébergement","Hôtellerie de plein air","Palleau","71350","71341","Saône-et-Loire","Bourgogne-Franche-Comté","46.95844","5.0189",,"VERDUN-SUR-LE-DOUBS │ OT Saône Doubs Bresse | Cat.III","2026-02-01T00:00:00.000Z","2026-02-02T01:12:49.696Z"
"Camping ""Coeur d'Alsace""","270000086","Lieu","Hébergement","Hôtellerie de plein air","Harskirchen","67260","67183","Bas-Rhin","Grand Est","48.9411351815259","7.03002691268921","http://camping-coeur-alsace.fr/","Office de tourisme de l'Alsace Bossue","2026-03-04T00:00:00.000Z","2026-03-07T08:00:35.166Z"
"Yourte  ""sous les poiriers""","HLONOR061FS0005F","Produit,Lieu","Produit d'hébergement,Hébergement","Yourte,Hébergement locatif","Domfront en Poiraie","61700","61145","Orne","Normandie","48.581911","-0.5966724","http://www.yourte-souslespoiriers.com/","Orne Tourisme","2026-04-11T00:00:00.000Z","2026-04-12T22:16:28.937Z"
"Issy Tourisme International","5689589","Lieu","Commerce de détail,Service d'information touristique","Office de tourisme","Issy-les-Moulineaux","92130","92040","Hauts-de-Seine","Île-de-France","48.824452","2.273745","https://www.issy-tourisme-international.com/","Conseil Départemental des Yvelines","2025-12-11T00:00:00.000Z","2026-02-12T10:08:37.421Z"
"Camping de Labaroche ""Les deux Hohnack""","230100026","Lieu","Hébergement","Hôtellerie de plein air","Labaroche","68910","68173","Haut-Rhin","Grand Est","48.091289","7.197816","http://www.camping-labaroche.com/","Office de tourisme de la vallée de Kaysersberg","2026-03-11T00:00:00.000Z","2026-03-12T08:03:47.645Z"
"LE SPRING GARDEN","HPALAR034V50Q70B","Lieu","Hébergement","Hôtellerie de plein air","Colombières-sur-Orb","34390","34080","Hérault","Occitanie","43.5747024","3.0059554","https://www.springarden.fr/,https://www.springarden.fr/reservation-en-ligne.html","34 - OT DU MINERVOIS AU CAROUX EN HAUT LANGUEDOC","2026-04-03T00:00:00.000Z","2026-04-08T02:25:01.769Z"
"CARGOL 21","RESLAR066V522E6K","Lieu","Restauration",,"Bélesta","66720","66019","Pyrénées-Orientales","Occitanie","42.71821","2.60708","https://www.riberach.com/fr/restaurant/cargol-21","OTI ROUSSILLON CONFLENT","2026-01-02T00:00:00.000Z","2026-01-13T05:54:35.482Z"
"Activinum - Appartement 2","HLOBFC000V50HKRH","Produit,Lieu","Produit d'hébergement,Hébergement","Hébergement locatif","Givry","71640","71221","Saône-et-Loire","Bourgogne-Franche-Comté","46.7824","4.74288","https://activinum.fr/","CHALON-SUR-SAONE │ OT et des Congrès du Grand Chalon | Cat.I","2026-03-23T00:00:00.000Z","2026-03-25T01:07:25.797Z"
"Fontevraud, le musée d'Art moderne","PCUPDL049V50F3YM","Lieu","Site culturel",,"Fontevraud-l'Abbaye","49590","49140","Maine-et-Loire","Pays de la Loire","47.181939","0.050698","https://www.fontevraud.fr/","SPL SAUMUR VAL DE LOIRE TOURISME","2026-04-11T00:00:00.000Z","2026-04-12T03:25:55.198Z"
"Activinum - Appartement 4","HLOBFC000V50HKUT","Produit,Lieu","Produit d'hébergement,Hébergement","Hébergement locatif","Givry","71640","71221","Saône-et-Loire","Bourgogne-Franche-Comté","46.7824","4.74288","https://activinum.fr/","CHALON-SUR-SAONE │ OT et des Congrès du Grand Chalon | Cat.I","2026-03-23T00:00:00.000Z","2026-03-25T01:07:25.797Z"
"Activinum - Appartement 3","HLOBFC000V50HKUS","Produit,Lieu","Produit d'hébergement,Hébergement","Hébergement locatif","Givry","71640","71221","Saône-et-Loire","Bourgogne-Franche-Comté","46.7824","4.74288","https://activinum.fr/","CHALON-SUR-SAONE │ OT et des Congrès du Grand Chalon | Cat.I","2026-03-23T00:00:00.000Z","2026-03-25T01:07:25.802Z"
"Camping du Plan d'Eau","4741759","Lieu","Hébergement","Hôtellerie de plein air","Saint-Étienne-de-Tinée","06660","06120","Alpes-Maritimes","Provence-Alpes-Côte d'Azur","44.258428","6.92235","https://campingduplandeau.com/","Office de Tourisme Métropolitain Nice Côte d'Azur","2026-04-07T00:00:00.000Z","2026-04-08T07:26:15.708Z"
"Appartement Pomme et Mirabelle","777007464","Lieu","Hébergement","Hébergement locatif","Liézey","88400","88269","Vosges","Grand Est","48.0949483847989","6.80872136375429",,"OT COMMUNAUTAIRE GERARDMER HAUTES VOSGES","2026-01-31T00:00:00.000Z","2026-02-01T06:01:12.294Z"
"Chambres d'hôtes > La Tour Cachée","HLONOR050V524IX2","Lieu","Hébergement","Hébergement locatif","Mortain-Bocage","50140","50359","Manche","Normandie","48.6474135","-0.9414671","https://www.latourcachee.com/","OT MSM Normandie","2026-01-06T00:00:00.000Z","2026-01-19T02:55:43.465Z"
"LES GÎTES DU PETIT MARCEL","HLOPDL044V50YYK1","Lieu","Hébergement","Hébergement locatif","Soudan","44110","44199","Loire-Atlantique","Pays de la Loire","47.72389","-1.3224","https://gitesdupetitmarcel.com/,https://www.openrunner.com/route-details/19920179","Office de Tourisme Châteaubriant-Derval","2026-01-13T00:00:00.000Z","2026-01-14T05:11:00.740Z"
"Chalet le Pourquoi Pas - 15 personnes - Sauna, Jacuzzi & Grand Confort","776004009","Lieu","Hébergement","Hébergement locatif","La Bresse","88250","88075","Vosges","Grand Est","48.0018377","6.8611692","https://www.chalet-lepourquoipas.fr/chalet/","OT COMMUNAUTAIRE DE LA BRESSE HAUTES VOSGES","2026-03-20T00:00:00.000Z","2026-03-21T06:05:32.569Z"
"La Ranquière","4756087","Lieu","Hébergement","Hébergement locatif","Rouairoux","81240","81231","Tarn","Occitanie","43.474682","2.579295","https://www.greengo.voyage/hote/gite-la-ranquiere","Office de tourisme Thoré Montagne Noire","2025-06-24T00:00:00.000Z","2026-02-06T06:56:19.556Z"
"Appartement 5 personnes Jonquilles","776003171","Lieu","Hébergement","Hébergement locatif","La Bresse","88250","88075","Vosges","Grand Est","48.0229","6.89664199999993","https://reservation.labresse.net/appartement-5-personnes-jonquilles-45m2-a0450.html","OT COMMUNAUTAIRE DE LA BRESSE HAUTES VOSGES","2025-12-30T00:00:00.000Z","2025-12-31T06:01:15.773Z"
"Studio/Appartement 4 personnes - Les Vallées - Résidence hôtelière au cœur de la Bresse","776004017","Lieu","Hébergement","Hébergement locatif","La Bresse","88250","88075","Vosges","Grand Est","48.0076047","6.8818268","https://reservation.labresse.net/studio-appartement-4-personnes-les-vallees-residence-hoteliere-au-coeur-de-la-bresse-s10rv.html","OT COMMUNAUTAIRE DE LA BRESSE HAUTES VOSGES","2026-02-06T00:00:00.000Z","2026-02-07T08:49:05.824Z"
"Guinguette du Mas de Rome","5896787","Lieu","Restauration",,"Goudargues","30630","30131","Gard","Occitanie","44.200747","4.477573","https://campinglemasderome.com/","Office de Tourisme Provence Occitane","2025-10-24T00:00:00.000Z","2026-02-12T10:08:37.647Z"
"Kokoni - ""Hapa""","HLOAQU064V5B9P03","Lieu","Hébergement","Hébergement locatif","Arette","64570","64040","Pyrénées-Atlantiques","Nouvelle-Aquitaine","43.0940371","-0.7221011","http://www.kokoni-en-bearn.fr/,http://www.kokoni-en-bearn.fr/","Office de Tourisme du Haut-Béarn","2026-02-11T00:00:00.000Z","2026-04-11T01:02:24.281Z"
"Kokoni - ""Koko""","HLOAQU064V5B9P0Q","Lieu","Hébergement","Hébergement locatif","Arette","64570","64040","Pyrénées-Atlantiques","Nouvelle-Aquitaine","43.0940238","-0.7221979","http://www.kokoni-en-bearn.fr/,http://www.kokoni-en-bearn.fr/","Office de Tourisme du Haut-Béarn","2026-04-02T00:00:00.000Z","2026-04-11T01:02:24.285Z"
"SCI Les Magnolias / chambres d'hôtes","HLOAQU064V5B9PZR","Lieu","Hébergement","Hébergement locatif","Hendaye","64700","64260","Pyrénées-Atlantiques","Nouvelle-Aquitaine","43.37094","-1.77836","https://www.villagoxoa-hendaye.fr/","Hendaye Tourisme & Commerce","2026-01-01T00:00:00.000Z","2026-04-11T01:02:24.284Z"
"Kokoni - ""Aquí""","HLOAQU064V5B9P0S","Lieu","Hébergement","Hébergement locatif","Arette","64570","64040","Pyrénées-Atlantiques","Nouvelle-Aquitaine","43.0940571","-0.7223321","http://www.kokoni-en-bearn.fr/,http://www.kokoni-en-bearn.fr/","Office de Tourisme du Haut-Béarn","2026-02-11T00:00:00.000Z","2026-04-11T01:02:24.286Z"
"Kokoni - ""Ici""","HLOAQU064V5B9P0L","Lieu","Hébergement","Hébergement locatif","Arette","64570","64040","Pyrénées-Atlantiques","Nouvelle-Aquitaine","43.0940254","-0.7222672","http://www.kokoni-en-bearn.fr/,http://www.kokoni-en-bearn.fr/","Office de Tourisme du Haut-Béarn","2026-02-11T00:00:00.000Z","2026-04-11T01:02:24.285Z"
"Appartement 6 personnes - Les Grandes Feignes - au pied des pistes La Bresse Hohneck","776004015","Lieu","Hébergement","Hébergement locatif","La Bresse","88250","88075","Vosges","Grand Est","48.0385069132894","6.97262303664551","https://reservation.labresse.net/appartement-6-personnes-les-grandes-feignes-au-pied-des-pistes-la-bresse-hohneck-agf3p6f.html","OT COMMUNAUTAIRE DE LA BRESSE HAUTES VOSGES","2025-12-02T00:00:00.000Z","2025-12-03T06:02:18.992Z"
"Auberge de La Draye","5927645","Lieu","Restauration",,"Crots","05200","05045","Hautes-Alpes","Provence-Alpes-Côte d'Azur","44.498552","6.475064","https://www.gitedeladraye.fr/","Office de Tourisme Intercommunal de Serre-Ponçon","2025-11-05T00:00:00.000Z","2026-02-12T10:08:37.371Z"
"Camping Paradis Les Amarines","5930220","Lieu","Hébergement","Hôtellerie de plein air","Cornillon","30630","30096","Gard","Occitanie","44.220521","4.479062","https://www.campinglesamarines.com/","Office de Tourisme Provence Occitane","2026-01-05T00:00:00.000Z","2026-01-06T07:05:11.828Z"
"Appartement 4 personnes - Les Grandes Feignes - au pied des pistes La Bresse Hohneck","776004016","Lieu","Hébergement","Hébergement locatif","La Bresse","88250","88075","Vosges","Grand Est","48.0385284341823","6.97276251151428","https://reservation.labresse.net/appartement-4-personnes-les-grandes-feignes-au-pied-des-pistes-la-bresse-hohneck-agf2p4f.html","OT COMMUNAUTAIRE DE LA BRESSE HAUTES VOSGES","2025-12-02T00:00:00.000Z","2025-12-03T06:02:18.992Z"
"Les Viviers de Carteau","5537412","Lieu","Fournisseur de dégustation",,"Port-Saint-Louis-du-Rhône","13230","13078","Bouches-du-Rhône","Provence-Alpes-Côte d'Azur","43.377159","4.836545","https://viviersdecarteau.fr/","Provence Tourisme","2025-04-25T00:00:00.000Z","2026-03-04T05:08:31.463Z"
"Meublé le Clos du Sapin Bleu","940008573","Lieu","Hébergement","Hébergement locatif","Saint-Dié-des-Vosges","88100","88413","Vosges","Grand Est","48.2924029","6.9567735",,"OT SAINT DIE DES VOSGES","2026-03-04T00:00:00.000Z","2026-03-05T06:05:43.457Z"
"Hôtel Spa Restaurant Le Saint Antoine","HOTBOU0210000087","Lieu","Restauration,Hébergement","Restaurant,Hôtellerie","Lamarche-sur-Saône","21760","21337","Côte-d'Or","Bourgogne-Franche-Comté","47.2769612","5.3844879","https://www.le-saint-antoine.fr/","La Côte-d'Or J'adore","2026-03-12T00:00:00.000Z","2026-04-08T00:18:41.989Z"
"LA CABANE DU MAS DEL CA","HLOLAR066V5237RP","Lieu","Hébergement","Hébergement locatif","Sorède","66690","66196","Pyrénées-Orientales","Occitanie","42.516881","2.95399862","https://www.masdelca.fr/,http://www.masdelca.fr/","CDT66","2026-03-24T00:00:00.000Z","2026-03-25T05:10:58.572Z"
"AIRE BIVOUAC LA CUEILLEUSE","HPAPDL044V50Y5GL","Lieu","Hébergement","Hôtellerie de plein air","Nort-sur-Erdre","44390","44110","Loire-Atlantique","Pays de la Loire","47.4429749","-1.5602746","https://lacueilleuse.com/","Pays Erdre Canal Forêt","2026-03-11T00:00:00.000Z","2026-03-12T05:34:28.578Z"
"1tour2roues","LOIPDL049V50ELKL","Lieu","Site sportif, récréatif et de loisirs",,"Val-du-Layon","49190","49292","Maine-et-Loire","Pays de la Loire","47.3280781","-0.671382","https://1tour2roues.com/","Office de tourisme Anjou Vignobles et Villages","2026-01-05T00:00:00.000Z","2026-02-13T08:45:08.831Z"
"Balade accompagnée et découverte des bords de Loire et du Layon","ASCPDL049V50ELKI","Produit,Lieu","Pratique,Prestataire d'activité","Accompagnement,Prestataire d'activité sportive et de loisir","Val-du-Layon","49190","49292","Maine-et-Loire","Pays de la Loire","47.3278806","-0.677717","https://1tour2roues.com/","Office de tourisme Anjou Vignobles et Villages","2026-04-07T00:00:00.000Z","2026-04-08T03:37:47.961Z"
"Maison des Remparts","HLOCEN037V50LGFA","Lieu","Hébergement","Hébergement locatif","Loches","37600","37132","Indre-et-Loire","Centre-Val de Loire","47.1236928","0.9952814","https://www.maison-des-remparts.fr/","Loches Touraine Châteaux de la Loire","2026-01-04T00:00:00.000Z","2026-01-05T04:22:59.648Z"
"Chez La Fontaine Gîte Le Four","HLONOR014FS0018U","Lieu","Hébergement","Hébergement locatif","Géfosse-Fontenay","14230","14298","Calvados","Normandie","49.356919","-1.0964757","http://www.chezlafontaine.com/","OT Isigny-Omaha","2026-02-20T00:00:00.000Z","2026-02-21T03:59:18.195Z"
"Aire naturelle de Camping Chez La Fontaine","HPANOR014V50069Y","Lieu","Hébergement","Hôtellerie de plein air","Géfosse-Fontenay","14230","14298","Calvados","Normandie","49.3568954","-1.0965086","https://chezlafontaine.com/","OT Isigny-Omaha","2026-02-20T00:00:00.000Z","2026-02-21T03:59:18.195Z"
